{"data": [{"locationId": "03400121", "chain": "KROGER", "address": {"addressLine1": "9806 Gaston Road", "city": "Katy", "state": "TX", "zipCode": "77494", "county": "FORT BEND COUNTY"}, "geolocation": {"latitude": 29.736724, "longitude": -95.809772, "latLng": "29.736724,-95.809772"}, "name": "Kroger - Kroger", "hours": {"timezone": "America/Chicago", "gmtOffset": "(UTC-06:00) Central Time (US Canada)", "open24": false, "monday": {"open": "06:00", "close": "00:00", "open24": false}, "tuesday": {"open": "06:00", "close": "00:00", "open24": false}, "wednesday": {"open": "06:00", "close": "00:00", "open24": false}, "thursday": {"open": "06:00", "close": "00:00", "open24": false}, "friday": {"open": "06:00", "close": "00:00", "open24": false}, "saturday": {"open": "06:00", "close": "00:00", "open24": false}, "sunday": {"open": "06:00", "close": "00:00", "open24": false}}, "phone": "3463073054", "departments": [{"departmentId": "03", "name": "Cheese Counter"}, {"departmentId": "04", "name": "Meat Department"}, {"departmentId": "05", "name": "Seafood Department"}, {"departmentId": "46", "name": "Sushi"}, {"departmentId": "50", "name": "Olive Bar"}, {"departmentId": "65", "name": "Money Services"}, {"departmentId": "69", "name": "Online Deli/Bakery Ordering"}, {"departmentId": "02", "name": "Bakery"}, {"departmentId": "23", "name": "Drug & General Merchandise"}, {"departmentId": "32", "name": "Natural And Organics"}, {"departmentId": "51", "name": "Tortillaria"}, {"departmentId": "0G", "name": "Meal Kits"}, {"departmentId": "74", "name": "Wine Tasting Bar"}, {"departmentId": "08", "name": "Floral"}, {"departmentId": "09", "name": "Pharmacy", "phone": "3463073055", "hours": {"open24": false, "monday": {"open": "09:00", "close": "20:00", "open24": false}, "tuesday": {"open": "09:00", "close": "20:00", "open24": false}, "wednesday": {"open": "09:00", "close": "20:00", "open24": false}, "thursday": {"open": "09:00", "close": "20:00", "open24": false}, "friday": {"open": "09:00", "close": "20:00", "open24": false}, "saturday": {"open": "09:00", "close": "18:00", "open24": false}, "sunday": {"open": "11:00", "close": "18:00", "open24": false}}, "address": {"addressLine1": "9806 Gaston Road", "city": "Katy", "state": "TX", "zipCode": "77494"}, "geolocation": {"latitude": 29.7339097, "longitude": -95.8107101, "latLng": "29.7339097,-95.8107101"}, "offsite": true}, {"departmentId": "30", "name": "Salad Bar"}, {"departmentId": "40", "name": "Coffee Bar"}, {"departmentId": "01", "name": "Deli"}, {"departmentId": "10", "name": "Gas Station", "phone": "2817124230", "address": {"addressLine1": "4150 Falcon Landing Boulevard", "city": "Katy", "state": "TX", "zipCode": "77494"}, "geolocation": {"latitude": 29.7339097, "longitude": -95.8107101, "latLng": "29.7339097,-95.8107101"}, "offsite": true}, {"departmentId": "21", "name": "Self Checkout"}, {"departmentId": "49", "name": "Kitchen Place"}, {"departmentId": "0E", "name": "Delivery"}, {"departmentId": "53", "name": "Boar's Head"}, {"departmentId": "55", "name": "Atm"}, {"departmentId": "48", "name": "Starbucks"}, {"departmentId": "44", "name": "Beer"}, {"departmentId": "94", "name": "Pickup", "phone": "3463073071", "hours": {"open24": false, "monday": {"open": "08:00", "close": "21:00", "open24": false}, "tuesday": {"open": "08:00", "close": "21:00", "open24": false}, "wednesday": {"open": "08:00", "close": "21:00", "open24": false}, "thursday": {"open": "08:00", "close": "21:00", "open24": false}, "friday": {"open": "08:00", "close": "21:00", "open24": false}, "saturday": {"open": "08:00", "close": "21:00", "open24": false}, "sunday": {"open": "08:00", "close": "21:00", "open24": false}}, "address": {"addressLine1": "9806 Gaston Road", "city": "Katy", "state": "TX", "zipCode": "77494"}, "geolocation": {"latitude": 29.7339097, "longitude": -95.8107101, "latLng": "29.7339097,-95.8107101"}, "offsite": true}, {"departmentId": "16", "name": "Drive-thru Pharmacy"}, {"departmentId": "60", "name": "Red Box"}, {"departmentId": "45", "name": "Wine"}]}, {"locationId": "03483151", "chain": "SHELL COMPANY", "address": {"addressLine1": "25645 WESTHEIMER PKWY", "city": "KATY", "state": "TX", "zipCode": "77494"}, "geolocation": {"latitude": 29.749978, "longitude": -95.798666, "latLng": "29.749978,-95.7986660"}, "name": "Shell Company", "departments": [{"departmentId": "10", "name": "Gas Station"}]}, {"locationId": "03482910", "chain": "SHELL COMPANY", "address": {"addressLine1": "4140 SPRING GREEN BLVD", "city": "KATY", "state": "TX", "zipCode": "77494"}, "geolocation": {"latitude": 29.726614, "longitude": -95.819793, "latLng": "29.726614,-95.8197930"}, "name": "Shell Company", "departments": [{"departmentId": "10", "name": "Gas Station"}]}, {"locationId": "03483131", "chain": "SHELL COMPANY", "address": {"addressLine1": "25833 CINCO RANCH BLVD", "city": "KATY", "state": "TX", "zipCode": "77494"}, "geolocation": {"latitude": 29.725756, "longitude": -95.800462, "latLng": "29.725756,-95.8004620"}, "name": "Shell Company", "departments": [{"departmentId": "10", "name": "Gas Station"}]}, {"locationId": "03483089", "chain": "SHELL COMPANY", "address": {"addressLine1": "1350 PIN OAK RD", "city": "KATY", "state": "TX", "zipCode": "77494"}, "geolocation": {"latitude": 29.770082, "longitude": -95.817822, "latLng": "29.770082,-95.8178220"}, "name": "Shell Company", "departments": [{"departmentId": "10", "name": "Gas Station"}]}, {"locationId": "03400733", "chain": "KROGER", "address": {"addressLine1": "1550 W Grand Pkwy S", "city": "Katy", "state": "TX", "zipCode": "77494", "county": "FORT BEND COUNTY"}, "geolocation": {"latitude": 29.7580735, "longitude": -95.7784412, "latLng": "29.7580735,-95.7784412"}, "name": "Kroger - Bay Hill", "hours": {"timezone": "America/Chicago", "gmtOffset": "(UTC-06:00) Central Time (US Canada)", "open24": false, "monday": {"open": "06:00", "close": "00:00", "open24": false}, "tuesday": {"open": "06:00", "close": "00:00", "open24": false}, "wednesday": {"open": "06:00", "close": "00:00", "open24": false}, "thursday": {"open": "06:00", "close": "00:00", "open24": false}, "friday": {"open": "06:00", "close": "00:00", "open24": false}, "saturday": {"open": "06:00", "close": "00:00", "open24": false}, "sunday": {"open": "06:00", "close": "00:00", "open24": false}}, "phone": "2816930603", "departments": [{"departmentId": "94", "name": "Pickup"}, {"departmentId": "31", "name": "Coin Star"}, {"departmentId": "42", "name": "Walk Up Pharmacy"}, {"departmentId": "63", "name": "I-wireless"}, {"departmentId": "69", "name": "Online Deli/Bakery Ordering"}, {"departmentId": "86", "name": "Propane"}, {"departmentId": "05", "name": "Seafood Department"}, {"departmentId": "45", "name": "Wine"}, {"departmentId": "58", "name": "Free Wireless Access"}, {"departmentId": "32", "name": "Natural And Organics"}, {"departmentId": "65", "name": "Money Services"}, {"departmentId": "21", "name": "Self Checkout"}, {"departmentId": "55", "name": "Atm"}, {"departmentId": "60", "name": "Red Box"}, {"departmentId": "99", "name": "Check Cashing"}, {"departmentId": "01", "name": "Deli"}, {"departmentId": "08", "name": "Floral"}, {"departmentId": "09", "name": "Pharmacy", "phone": "2816930606", "hours": {"open24": false, "monday": {"open": "09:00", "close": "20:00", "open24": false}, "tuesday": {"open": "09:00", "close": "20:00", "open24": false}, "wednesday": {"open": "09:00", "close": "20:00", "open24": false}, "thursday": {"open": "09:00", "close": "20:00", "open24": false}, "friday": {"open": "09:00", "close": "20:00", "open24": false}, "saturday": {"open": "09:00", "close": "18:00", "open24": false}, "sunday": {"open": "11:00", "close": "18:00", "open24": false}}}, {"departmentId": "51", "name": "Tortillaria"}, {"departmentId": "89", "name": "Western Union"}, {"departmentId": "04", "name": "Meat Department"}, {"departmentId": "10", "name": "Gas Station", "phone": "2816936909", "hours": {"open24": false, "monday": {"open": "06:00", "close": "22:00", "open24": false}, "tuesday": {"open": "06:00", "close": "22:00", "open24": false}, "wednesday": {"open": "06:00", "close": "22:00", "open24": false}, "thursday": {"open": "06:00", "close": "22:00", "open24": false}, "friday": {"open": "06:00", "close": "22:00", "open24": false}, "saturday": {"open": "06:00", "close": "22:00", "open24": false}, "sunday": {"open": "06:00", "close": "22:00", "open24": false}}, "address": {"addressLine1": "1580 W Grand Pkwy S", "city": "Katy", "state": "TX", "zipCode": "77494"}, "geolocation": {"latitude": 29.7579593, "longitude": -95.7778701, "latLng": "29.7579593,-95.7778701"}, "offsite": true}, {"departmentId": "16", "name": "Drive-thru Pharmacy"}, {"departmentId": "23", "name": "Drug & General Merchandise"}, {"departmentId": "44", "name": "Beer"}, {"departmentId": "50", "name": "Olive Bar"}, {"departmentId": "53", "name": "Boar's Head"}, {"departmentId": "02", "name": "Bakery"}, {"departmentId": "46", "name": "Sushi"}, {"departmentId": "48", "name": "Starbucks"}]}, {"locationId": "03400146", "chain": "KROGER", "address": {"addressLine1": "1712 Spring Green Blvd.", "city": "Katy", "state": "TX", "zipCode": "77494", "county": "FORT BEND COUNTY"}, "geolocation": {"latitude": 29.762913, "longitude": -95.843927, "latLng": "29.762913,-95.843927"}, "name": "Kroger Marketplace - Firethorne", "hours": {"timezone": "America/Chicago", "gmtOffset": "(UTC-06:00) Central Time (US Canada)", "open24": false, "monday": {"open": "06:00", "close": "00:00", "open24": false}, "tuesday": {"open": "06:00", "close": "00:00", "open24": false}, "wednesday": {"open": "06:00", "close": "00:00", "open24": false}, "thursday": {"open": "06:00", "close": "00:00", "open24": false}, "friday": {"open": "06:00", "close": "00:00", "open24": false}, "saturday": {"open": "06:00", "close": "00:00", "open24": false}, "sunday": {"open": "06:00", "close": "00:00", "open24": false}}, "phone": "2817694360", "departments": [{"departmentId": "89", "name": "Western Union"}, {"departmentId": "99", "name": "Check Cashing"}, {"departmentId": "08", "name": "Floral"}, {"departmentId": "68", "name": "Growler Fill"}, {"departmentId": "94", "name": "Pickup"}, {"departmentId": "07", "name": "Restaurant"}, {"departmentId": "60", "name": "Red Box"}, {"departmentId": "17", "name": "Bath"}, {"departmentId": "53", "name": "Boar's Head"}, {"departmentId": "63", "name": "I-wireless"}, {"departmentId": "51", "name": "Tortillaria"}, {"departmentId": "01", "name": "Deli"}, {"departmentId": "76", "name": "Rotisserie Chicken"}, {"departmentId": "45", "name": "Wine"}, {"departmentId": "23", "name": "Drug & General Merchandise"}, {"departmentId": "31", "name": "Coin Star"}, {"departmentId": "38", "name": "Apparel"}, {"departmentId": "86", "name": "Propane"}, {"departmentId": "13", "name": "Cell Phone"}, {"departmentId": "18", "name": "Books And Magazines"}, {"departmentId": "21", "name": "Self Checkout"}, {"departmentId": "40", "name": "Coffee Bar"}, {"departmentId": "55", "name": "Atm"}, {"departmentId": "71", "name": "Home Shop"}, {"departmentId": "74", "name": "Wine Tasting Bar"}, {"departmentId": "12", "name": "Cosmetics"}, {"departmentId": "36", "name": "Home Fashion And Decor"}, {"departmentId": "37", "name": "Shoes"}, {"departmentId": "73", "name": "Eco Atm"}, {"departmentId": "87", "name": "Expanded Grocery"}, {"departmentId": "88", "name": "Perishables"}, {"departmentId": "26", "name": "Kosher Food"}, {"departmentId": "04", "name": "Meat Department"}, {"departmentId": "05", "name": "Seafood Department"}, {"departmentId": "0G", "name": "Meal Kits"}, {"departmentId": "16", "name": "Drive-thru Pharmacy"}, {"departmentId": "32", "name": "Natural And Organics"}, {"departmentId": "35", "name": "Home Goods"}, {"departmentId": "54", "name": "Chef"}, {"departmentId": "03", "name": "Cheese Counter"}, {"departmentId": "66", "name": "Murray's Cheese"}, {"departmentId": "77", "name": "Fried Chicken"}, {"departmentId": "58", "name": "Free Wireless Access"}, {"departmentId": "02", "name": "Bakery"}, {"departmentId": "49", "name": "Kitchen Place"}, {"departmentId": "30", "name": "Salad Bar"}, {"departmentId": "48", "name": "Starbucks"}, {"departmentId": "62", "name": "Urgent Care"}, {"departmentId": "64", "name": "Baby World"}, {"departmentId": "46", "name": "Sushi"}, {"departmentId": "10", "name": "Gas Station", "phone": "2817694374", "hours": {"open24": false, "monday": {"open": "06:00", "close": "22:00", "open24": false}, "tuesday": {"open": "06:00", "close": "22:00", "open24": false}, "wednesday": {"open": "06:00", "close": "22:00", "open24": false}, "thursday": {"open": "06:00", "close": "22:00", "open24": false}, "friday": {"open": "06:00", "close": "22:00", "open24": false}, "saturday": {"open": "06:00", "close": "22:00", "open24": false}, "sunday": {"open": "06:00", "close": "22:00", "open24": false}}, "address": {"addressLine1": "1704 Spring Green Blvd.", "city": "Katy", "state": "TX", "zipCode": "77494"}, "geolocation": {"latitude": 29.7401885, "longitude": -95.8301773, "latLng": "29.7401885,-95.8301773"}, "offsite": true}, {"departmentId": "59", "name": "Bistro"}, {"departmentId": "65", "name": "Money Services"}, {"departmentId": "50", "name": "Olive Bar"}, {"departmentId": "44", "name": "Beer"}, {"departmentId": "69", "name": "Online Deli/Bakery Ordering"}, {"departmentId": "95", "name": "Diesel"}, {"departmentId": "09", "name": "Pharmacy", "phone": "2817694361", "hours": {"open24": false, "monday": {"open": "09:00", "close": "20:00", "open24": false}, "tuesday": {"open": "09:00", "close": "20:00", "open24": false}, "wednesday": {"open": "09:00", "close": "20:00", "open24": false}, "thursday": {"open": "09:00", "close": "20:00", "open24": false}, "friday": {"open": "09:00", "close": "20:00", "open24": false}, "saturday": {"open": "09:00", "close": "18:00", "open24": false}, "sunday": {"open": "11:00", "close": "18:00", "open24": false}}}]}, {"locationId": "03482676", "chain": "SHELL COMPANY", "address": {"addressLine1": "2620 FM 1463 RD", "city": "KATY", "state": "TX", "zipCode": "77494"}, "geolocation": {"latitude": 29.752943, "longitude": -95.852149, "latLng": "29.752943,-95.8521490"}, "name": "Shell Company", "departments": [{"departmentId": "10", "name": "Gas Station"}]}, {"locationId": "03483115", "chain": "SHELL COMPANY", "address": {"addressLine1": "26149 KATY FREEWAY", "city": "KATY", "state": "TX", "zipCode": "77494"}, "geolocation": {"latitude": 29.777459, "longitude": -95.834229, "latLng": "29.777459,-95.8342290"}, "name": "Shell Company", "departments": [{"departmentId": "10", "name": "Gas Station"}]}, {"locationId": "03483139", "chain": "SHELL COMPANY", "address": {"addressLine1": "23255 KINGSLAND BLVD", "city": "KATY", "state": "TX", "zipCode": "77494"}, "geolocation": {"latitude": 29.77175, "longitude": -95.776301, "latLng": "29.771750,-95.7763010"}, "name": "Shell Company", "departments": [{"departmentId": "10", "name": "Gas Station"}]}, {"locationId": "03482834", "chain": "SHELL COMPANY", "address": {"addressLine1": "9630 SPRING GREEN BLVD", "city": "KATY", "state": "TX", "zipCode": "77494"}, "geolocation": {"latitude": 29.702019, "longitude": -95.814138, "latLng": "29.702019,-95.8141380"}, "name": "Shell Company", "departments": [{"departmentId": "10", "name": "Gas Station"}]}, {"locationId": "03400038", "chain": "KROGER", "address": {"addressLine1": "25050 F.M. 1093", "city": "Richmond", "state": "TX", "zipCode": "77406", "county": "FORT BEND COUNTY"}, "geolocation": {"latitude": 29.700373, "longitude": -95.8117549, "latLng": "29.700373,-95.8117549"}, "name": "Kroger - Southpark Cinco", "hours": {"timezone": "America/Chicago", "gmtOffset": "(UTC-06:00) Central Time (US Canada)", "open24": false, "monday": {"open": "06:00", "close": "00:00", "open24": false}, "tuesday": {"open": "06:00", "close": "00:00", "open24": false}, "wednesday": {"open": "06:00", "close": "00:00", "open24": false}, "thursday": {"open": "06:00", "close": "00:00", "open24": false}, "friday": {"open": "06:00", "close": "00:00", "open24": false}, "saturday": {"open": "06:00", "close": "00:00", "open24": false}, "sunday": {"open": "06:00", "close": "00:00", "open24": false}}, "phone": "8325867375", "departments": [{"departmentId": "0G", "name": "Meal Kits"}, {"departmentId": "10", "name": "Gas Station", "hours": {"open24": false, "monday": {"open": "06:00", "close": "22:00", "open24": false}, "tuesday": {"open": "06:00", "close": "22:00", "open24": false}, "wednesday": {"open": "06:00", "close": "22:00", "open24": false}, "thursday": {"open": "06:00", "close": "22:00", "open24": false}, "friday": {"open": "06:00", "close": "22:00", "open24": false}, "saturday": {"open": "06:00", "close": "22:00", "open24": false}, "sunday": {"open": "06:00", "close": "22:00", "open24": false}}}, {"departmentId": "45", "name": "Wine"}, {"departmentId": "48", "name": "Starbucks"}, {"departmentId": "69", "name": "Online Deli/Bakery Ordering"}, {"departmentId": "08", "name": "Floral"}, {"departmentId": "44", "name": "Beer"}, {"departmentId": "51", "name": "Tortillaria"}, {"departmentId": "04", "name": "Meat Department"}, {"departmentId": "50", "name": "Olive Bar"}, {"departmentId": "58", "name": "Free Wireless Access"}, {"departmentId": "99", "name": "Check Cashing"}, {"departmentId": "01", "name": "Deli"}, {"departmentId": "49", "name": "Kitchen Place"}, {"departmentId": "66", "name": "Murray's Cheese"}, {"departmentId": "05", "name": "Seafood Department"}, {"departmentId": "02", "name": "Bakery"}, {"departmentId": "03", "name": "Cheese Counter"}, {"departmentId": "16", "name": "Drive-thru Pharmacy"}, {"departmentId": "55", "name": "Atm"}, {"departmentId": "94", "name": "Pickup"}, {"departmentId": "95", "name": "Diesel"}, {"departmentId": "21", "name": "Self Checkout"}, {"departmentId": "32", "name": "Natural And Organics"}, {"departmentId": "46", "name": "Sushi"}, {"departmentId": "53", "name": "Boar's Head"}, {"departmentId": "65", "name": "Money Services"}, {"departmentId": "89", "name": "Western Union"}, {"departmentId": "09", "name": "Pharmacy", "phone": "8325867376", "hours": {"open24": false, "monday": {"open": "09:00", "close": "20:00", "open24": false}, "tuesday": {"open": "09:00", "close": "20:00", "open24": false}, "wednesday": {"open": "09:00", "close": "20:00", "open24": false}, "thursday": {"open": "09:00", "close": "20:00", "open24": false}, "friday": {"open": "09:00", "close": "20:00", "open24": false}, "saturday": {"open": "09:00", "close": "18:00", "open24": false}, "sunday": {"open": "11:00", "close": "18:00", "open24": false}}, "address": {"addressLine1": "25050 F.M. 1093", "city": "Richmond", "state": "TX", "zipCode": "77406"}, "geolocation": {"latitude": 29.6973987, "longitude": -95.8139394, "latLng": "29.6973987,-95.8139394"}, "offsite": true}, {"departmentId": "0E", "name": "Delivery"}]}, {"locationId": "03400336", "chain": "KROGER", "address": {"addressLine1": "22150 Westheimer Pkwy", "city": "Katy", "state": "TX", "zipCode": "77450", "county": "FORT BEND COUNTY"}, "geolocation": {"latitude": 29.735585, "longitude": -95.7538029, "latLng": "29.735585,-95.7538029"}, "name": "Kroger - Cinco East", "hours": {"timezone": "America/Chicago", "gmtOffset": "(UTC-06:00) Central Time (US Canada)", "open24": false, "monday": {"open": "06:00", "close": "00:00", "open24": false}, "tuesday": {"open": "06:00", "close": "00:00", "open24": false}, "wednesday": {"open": "06:00", "close": "00:00", "open24": false}, "thursday": {"open": "06:00", "close": "00:00", "open24": false}, "friday": {"open": "06:00", "close": "00:00", "open24": false}, "saturday": {"open": "06:00", "close": "00:00", "open24": false}, "sunday": {"open": "06:00", "close": "00:00", "open24": false}}, "phone": "2818288880", "departments": [{"departmentId": "46", "name": "Sushi"}, {"departmentId": "58", "name": "Free Wireless Access"}, {"departmentId": "89", "name": "Western Union"}, {"departmentId": "01", "name": "Deli"}, {"departmentId": "44", "name": "Beer"}, {"departmentId": "64", "name": "Baby World"}, {"departmentId": "65", "name": "Money Services"}, {"departmentId": "31", "name": "Coin Star"}, {"departmentId": "32", "name": "Natural And Organics"}, {"departmentId": "69", "name": "Online Deli/Bakery Ordering"}, {"departmentId": "94", "name": "Pickup"}, {"departmentId": "02", "name": "Bakery"}, {"departmentId": "10", "name": "Gas Station", "phone": "2818280383", "hours": {"open24": false, "monday": {"open": "06:00", "close": "22:00", "open24": false}, "tuesday": {"open": "06:00", "close": "22:00", "open24": false}, "wednesday": {"open": "06:00", "close": "22:00", "open24": false}, "thursday": {"open": "06:00", "close": "22:00", "open24": false}, "friday": {"open": "06:00", "close": "22:00", "open24": false}, "saturday": {"open": "06:00", "close": "22:00", "open24": false}, "sunday": {"open": "06:00", "close": "22:00", "open24": false}}, "address": {"addressLine1": "22150 Westheimer Pkwy", "city": "Katy", "state": "TX", "zipCode": "77450"}, "geolocation": {"latitude": 29.735585, "longitude": -95.7538029, "latLng": "29.735585,-95.7538029"}, "offsite": true}, {"departmentId": "16", "name": "Drive-thru Pharmacy"}, {"departmentId": "23", "name": "Drug & General Merchandise"}, {"departmentId": "29", "name": "Event Tickets"}, {"departmentId": "99", "name": "Check Cashing"}, {"departmentId": "04", "name": "Meat Department"}, {"departmentId": "08", "name": "Floral"}, {"departmentId": "60", "name": "Red Box"}, {"departmentId": "63", "name": "I-wireless"}, {"departmentId": "51", "name": "Tortillaria"}, {"departmentId": "53", "name": "Boar's Head"}, {"departmentId": "05", "name": "Seafood Department"}, {"departmentId": "12", "name": "Cosmetics"}, {"departmentId": "0G", "name": "Meal Kits"}, {"departmentId": "17", "name": "Bath"}, {"departmentId": "18", "name": "Books And Magazines"}, {"departmentId": "21", "name": "Self Checkout"}, {"departmentId": "45", "name": "Wine"}, {"departmentId": "49", "name": "Kitchen Place"}, {"departmentId": "03", "name": "Cheese Counter"}, {"departmentId": "09", "name": "Pharmacy", "phone": "2818288778", "hours": {"open24": false, "monday": {"open": "09:00", "close": "20:00", "open24": false}, "tuesday": {"open": "09:00", "close": "20:00", "open24": false}, "wednesday": {"open": "09:00", "close": "20:00", "open24": false}, "thursday": {"open": "09:00", "close": "20:00", "open24": false}, "friday": {"open": "09:00", "close": "20:00", "open24": false}, "saturday": {"open": "09:00", "close": "18:00", "open24": false}, "sunday": {"open": "11:00", "close": "18:00", "open24": false}}}, {"departmentId": "50", "name": "Olive Bar"}]}, {"locationId": "03482826", "chain": "SHELL COMPANY", "address": {"addressLine1": "2930 N MASON RD", "city": "KATY", "state": "TX", "zipCode": "77449"}, "geolocation": {"latitude": 29.744385, "longitude": -95.751501, "latLng": "29.744385,-95.7515010"}, "name": "Shell Company", "departments": [{"departmentId": "10", "name": "Gas Station"}]}, {"locationId": "03482520", "chain": "SHELL COMPANY", "address": {"addressLine1": "1484 KATY FORT BEND RD", "city": "KATY", "state": "TX", "zipCode": "77493"}, "geolocation": {"latitude": 29.794734, "longitude": -95.801729, "latLng": "29.794734,-95.8017290"}, "name": "Shell Company", "departments": [{"departmentId": "10", "name": "Gas Station"}]}, {"locationId": "03482627", "chain": "SHELL COMPANY", "address": {"addressLine1": "6750 FM 1463 RD", "city": "FULSHEAR", "state": "TX", "zipCode": "77441"}, "geolocation": {"latitude": 29.695776, "longitude": -95.846593, "latLng": "29.695776,-95.8465930"}, "name": "Shell Company", "departments": [{"departmentId": "10", "name": "Gas Station"}]}, {"locationId": "03483207", "chain": "SHELL COMPANY", "address": {"addressLine1": "7803 W GRAND PKWY S", "city": "RICHMOND", "state": "TX", "zipCode": "77407"}, "geolocation": {"latitude": 29.693764, "longitude": -95.774218, "latLng": "29.693764,-95.7742180"}, "name": "Shell Company", "departments": [{"departmentId": "10", "name": "Gas Station"}]}, {"locationId": "03482913", "chain": "SHELL COMPANY", "address": {"addressLine1": "1414 W GRAND PKWY S", "city": "KATY", "state": "TX", "zipCode": "77494"}, "geolocation": {"latitude": 29.793503, "longitude": -95.775652, "latLng": "29.793503,-95.7756520"}, "name": "Shell Company", "departments": [{"departmentId": "10", "name": "Gas Station"}]}, {"locationId": "03482789", "chain": "SHELL COMPANY", "address": {"addressLine1": "5815 FRANZ RD", "city": "KATY", "state": "TX", "zipCode": "77493"}, "geolocation": {"latitude": 29.801149, "longitude": -95.824766, "latLng": "29.801149,-95.8247660"}, "name": "Shell Company", "departments": [{"departmentId": "10", "name": "Gas Station"}]}, {"locationId": "03482598", "chain": "SHELL COMPANY", "address": {"addressLine1": "21901 KATY FWY", "city": "KATY", "state": "TX", "zipCode": "77450"}, "geolocation": {"latitude": 29.78286, "longitude": -95.752268, "latLng": "29.782860,-95.7522680"}, "name": "Shell Company", "departments": [{"departmentId": "10", "name": "Gas Station"}]}, {"locationId": "03483377", "chain": "SHELL COMPANY", "address": {"addressLine1": "29633 HIGHWAY BLVD", "city": "KATY", "state": "TX", "zipCode": "77494"}, "geolocation": {"latitude": 29.785342, "longitude": -95.869276, "latLng": "29.785342,-95.8692760"}, "name": "Shell Company", "departments": [{"departmentId": "10", "name": "Gas Station"}]}, {"locationId": "03482527", "chain": "SHELL COMPANY", "address": {"addressLine1": "20607 WESTHEIMER PKWY", "city": "KATY", "state": "TX", "zipCode": "77450"}, "geolocation": {"latitude": 29.737952, "longitude": -95.733341, "latLng": "29.737952,-95.7333410"}, "name": "Shell Company", "departments": [{"departmentId": "10", "name": "Gas Station"}]}, {"locationId": "03483436", "chain": "SHELL COMPANY", "address": {"addressLine1": "1807 W. GRAND PARKWAY N.", "city": "Katy", "state": "TX", "zipCode": "77449"}, "geolocation": {"latitude": 29.803245, "longitude": -95.774603, "latLng": "29.803245,-95.7746030"}, "name": "Shell Company", "departments": [{"departmentId": "10", "name": "Gas Station"}]}, {"locationId": "03482729", "chain": "SHELL COMPANY", "address": {"addressLine1": "21206 KINGSLAND BLVD", "city": "KATY", "state": "TX", "zipCode": "77450"}, "geolocation": {"latitude": 29.776119, "longitude": -95.739828, "latLng": "29.776119,-95.7398280"}, "name": "Shell Company", "departments": [{"departmentId": "10", "name": "Gas Station"}]}, {"locationId": "03482678", "chain": "SHELL COMPANY", "address": {"addressLine1": "20626 FM 1093", "city": "KATY", "state": "TX", "zipCode": "77450"}, "geolocation": {"latitude": 29.703584, "longitude": -95.742348, "latLng": "29.703584,-95.7423480"}, "name": "Shell Company", "departments": [{"departmentId": "10", "name": "Gas Station"}]}, {"locationId": "03483360", "chain": "SHELL COMPANY", "address": {"addressLine1": "2855 KATY HOCKLEY CUT OFF", "city": "KATY", "state": "TX", "zipCode": "77493"}, "geolocation": {"latitude": 29.816391, "longitude": -95.808701, "latLng": "29.816391,-95.8087010"}, "name": "Shell Company", "departments": [{"departmentId": "10", "name": "Gas Station"}]}, {"locationId": "03483134", "chain": "SHELL COMPANY", "address": {"addressLine1": "1955 N MASON RD", "city": "KATY", "state": "TX", "zipCode": "77449"}, "geolocation": {"latitude": 29.801568, "longitude": -95.752383, "latLng": "29.801568,-95.7523830"}, "name": "Shell Company", "departments": [{"departmentId": "10", "name": "Gas Station"}]}, {"locationId": "03400122", "chain": "KROGER", "address": {"addressLine1": "2700 West Grand Parkway N.", "city": "Katy", "state": "TX", "zipCode": "77449", "county": "HARRIS COUNTY"}, "geolocation": {"latitude": 29.812571, "longitude": -95.770157, "latLng": "29.812571,-95.770157"}, "name": "Kroger Marketplace - Morton", "hours": {"timezone": "America/Chicago", "gmtOffset": "(UTC-06:00) Central Time (US Canada)", "open24": false, "monday": {"open": "06:00", "close": "00:00", "open24": false}, "tuesday": {"open": "06:00", "close": "00:00", "open24": false}, "wednesday": {"open": "06:00", "close": "00:00", "open24": false}, "thursday": {"open": "06:00", "close": "00:00", "open24": false}, "friday": {"open": "06:00", "close": "00:00", "open24": false}, "saturday": {"open": "06:00", "close": "00:00", "open24": false}, "sunday": {"open": "06:00", "close": "00:00", "open24": false}}, "phone": "3463073084", "departments": [{"departmentId": "32", "name": "Natural And Organics"}, {"departmentId": "76", "name": "Rotisserie Chicken"}, {"departmentId": "03", "name": "Cheese Counter"}, {"departmentId": "10", "name": "Gas Station", "phone": "3463073082", "hours": {"open24": false, "monday": {"open": "06:00", "close": "22:00", "open24": false}, "tuesday": {"open": "06:00", "close": "22:00", "open24": false}, "wednesday": {"open": "06:00", "close": "22:00", "open24": false}, "thursday": {"open": "06:00", "close": "22:00", "open24": false}, "friday": {"open": "06:00", "close": "22:00", "open24": false}, "saturday": {"open": "06:00", "close": "22:00", "open24": false}, "sunday": {"open": "06:00", "close": "22:00", "open24": false}}, "address": {"addressLine1": "2650 W Grand Parkway N.", "city": "Katy", "state": "TX", "zipCode": "77449"}, "geolocation": {"latitude": 29.8170602, "longitude": -95.7709102, "latLng": "29.8170602,-95.7709102"}, "offsite": true}, {"departmentId": "18", "name": "Books And Magazines"}, {"departmentId": "31", "name": "Coin Star"}, {"departmentId": "45", "name": "Wine"}, {"departmentId": "46", "name": "Sushi"}, {"departmentId": "50", "name": "Olive Bar"}, {"departmentId": "55", "name": "Atm"}, {"departmentId": "01", "name": "Deli"}, {"departmentId": "02", "name": "Bakery"}, {"departmentId": "04", "name": "Meat Department"}, {"departmentId": "37", "name": "Shoes"}, {"departmentId": "58", "name": "Free Wireless Access"}, {"departmentId": "0G", "name": "Meal Kits"}, {"departmentId": "12", "name": "Cosmetics"}, {"departmentId": "59", "name": "Bistro"}, {"departmentId": "49", "name": "Kitchen Place"}, {"departmentId": "60", "name": "Red Box"}, {"departmentId": "64", "name": "Baby World"}, {"departmentId": "65", "name": "Money Services"}, {"departmentId": "09", "name": "Pharmacy", "phone": "3463073085", "hours": {"open24": false, "monday": {"open": "09:00", "close": "21:00", "open24": false}, "tuesday": {"open": "09:00", "close": "21:00", "open24": false}, "wednesday": {"open": "09:00", "close": "21:00", "open24": false}, "thursday": {"open": "09:00", "close": "21:00", "open24": false}, "friday": {"open": "09:00", "close": "21:00", "open24": false}, "saturday": {"open": "09:00", "close": "18:00", "open24": false}, "sunday": {"open": "11:00", "close": "18:00", "open24": false}}}, {"departmentId": "16", "name": "Drive-thru Pharmacy"}, {"departmentId": "30", "name": "Salad Bar"}, {"departmentId": "48", "name": "Starbucks"}, {"departmentId": "74", "name": "Wine Tasting Bar"}, {"departmentId": "94", "name": "Pickup"}, {"departmentId": "23", "name": "Drug & General Merchandise"}, {"departmentId": "42", "name": "Walk Up Pharmacy"}, {"departmentId": "69", "name": "Online Deli/Bakery Ordering"}, {"departmentId": "95", "name": "Diesel"}, {"departmentId": "53", "name": "Boar's Head"}, {"departmentId": "77", "name": "Fried Chicken"}, {"departmentId": "89", "name": "Western Union"}, {"departmentId": "08", "name": "Floral"}, {"departmentId": "21", "name": "Self Checkout"}, {"departmentId": "35", "name": "Home Goods"}, {"departmentId": "38", "name": "Apparel"}, {"departmentId": "36", "name": "Home Fashion And Decor"}, {"departmentId": "51", "name": "Tortillaria"}, {"departmentId": "88", "name": "Perishables"}, {"departmentId": "96", "name": "E-85"}, {"departmentId": "05", "name": "Seafood Department"}, {"departmentId": "40", "name": "Coffee Bar"}, {"departmentId": "44", "name": "Beer"}]}, {"locationId": "03482741", "chain": "SHELL COMPANY", "address": {"addressLine1": "535 S FRY RD", "city": "KATY", "state": "TX", "zipCode": "77450"}, "geolocation": {"latitude": 29.779064, "longitude": -95.718624, "latLng": "29.779064,-95.7186240"}, "name": "Shell Company", "departments": [{"departmentId": "10", "name": "Gas Station"}]}, {"locationId": "03483112", "chain": "SHELL COMPANY", "address": {"addressLine1": "19999 KATY FWY", "city": "HOUSTON", "state": "TX", "zipCode": "77094"}, "geolocation": {"latitude": 29.782563, "longitude": -95.718435, "latLng": "29.782563,-95.7184350"}, "name": "Shell Company", "departments": [{"departmentId": "10", "name": "Gas Station"}]}, {"locationId": "03482824", "chain": "SHELL COMPANY", "address": {"addressLine1": "1703 N FRY RD", "city": "KATY", "state": "TX", "zipCode": "77449"}, "geolocation": {"latitude": 29.790314, "longitude": -95.719374, "latLng": "29.790314,-95.7193740"}, "name": "Shell Company", "departments": [{"departmentId": "10", "name": "Gas Station"}]}, {"locationId": "03483006", "chain": "SHELL COMPANY", "address": {"addressLine1": "30430 FM 1093", "city": "FULSHEAR", "state": "TX", "zipCode": "77441"}, "geolocation": {"latitude": 29.690392, "longitude": -95.899779, "latLng": "29.690392,-95.8997790"}, "name": "Shell Company", "departments": [{"departmentId": "10", "name": "Gas Station"}]}, {"locationId": "03400397", "chain": "KROGER", "address": {"addressLine1": "8011 W Grand Pkwy S", "city": "Richmond", "state": "TX", "zipCode": "77407", "county": "FORT BEND COUNTY"}, "geolocation": {"latitude": 29.6639089, "longitude": -95.7382645, "latLng": "29.6639089,-95.7382645"}, "name": "Kroger Marketplace - Waterside", "hours": {"timezone": "America/Chicago", "gmtOffset": "(UTC-06:00) Central Time (US Canada)", "open24": false, "monday": {"open": "06:00", "close": "00:00", "open24": false}, "tuesday": {"open": "06:00", "close": "00:00", "open24": false}, "wednesday": {"open": "06:00", "close": "00:00", "open24": false}, "thursday": {"open": "06:00", "close": "00:00", "open24": false}, "friday": {"open": "06:00", "close": "00:00", "open24": false}, "saturday": {"open": "06:00", "close": "00:00", "open24": false}, "sunday": {"open": "06:00", "close": "00:00", "open24": false}}, "phone": "2813412760", "departments": [{"departmentId": "23", "name": "Drug & General Merchandise"}, {"departmentId": "45", "name": "Wine"}, {"departmentId": "99", "name": "Check Cashing"}, {"departmentId": "01", "name": "Deli"}, {"departmentId": "08", "name": "Floral"}, {"departmentId": "09", "name": "Pharmacy", "phone": "2813412761", "hours": {"open24": false, "monday": {"open": "09:00", "close": "20:00", "open24": false}, "tuesday": {"open": "09:00", "close": "20:00", "open24": false}, "wednesday": {"open": "09:00", "close": "20:00", "open24": false}, "thursday": {"open": "09:00", "close": "20:00", "open24": false}, "friday": {"open": "09:00", "close": "20:00", "open24": false}, "saturday": {"open": "09:00", "close": "18:00", "open24": false}, "sunday": {"open": "11:00", "close": "18:00", "open24": false}}}, {"departmentId": "17", "name": "Bath"}, {"departmentId": "44", "name": "Beer"}, {"departmentId": "51", "name": "Tortillaria"}, {"departmentId": "53", "name": "Boar's Head"}, {"departmentId": "12", "name": "Cosmetics"}, {"departmentId": "16", "name": "Drive-thru Pharmacy"}, {"departmentId": "21", "name": "Self Checkout"}, {"departmentId": "49", "name": "Kitchen Place"}, {"departmentId": "50", "name": "Olive Bar"}, {"departmentId": "58", "name": "Free Wireless Access"}, {"departmentId": "04", "name": "Meat Department"}, {"departmentId": "32", "name": "Natural And Organics"}, {"departmentId": "48", "name": "Starbucks"}, {"departmentId": "95", "name": "Diesel"}, {"departmentId": "30", "name": "Salad Bar"}, {"departmentId": "31", "name": "Coin Star"}, {"departmentId": "54", "name": "Chef"}, {"departmentId": "59", "name": "Bistro"}, {"departmentId": "60", "name": "Red Box"}, {"departmentId": "69", "name": "Online Deli/Bakery Ordering"}, {"departmentId": "94", "name": "Pickup"}, {"departmentId": "05", "name": "Seafood Department"}, {"departmentId": "10", "name": "Gas Station", "phone": "2813412772", "hours": {"open24": false, "monday": {"open": "06:00", "close": "22:00", "open24": false}, "tuesday": {"open": "06:00", "close": "22:00", "open24": false}, "wednesday": {"open": "06:00", "close": "22:00", "open24": false}, "thursday": {"open": "06:00", "close": "22:00", "open24": false}, "friday": {"open": "06:00", "close": "22:00", "open24": false}, "saturday": {"open": "06:00", "close": "22:00", "open24": false}, "sunday": {"open": "06:00", "close": "22:00", "open24": false}}, "address": {"addressLine1": "8011 W Grand Pkwy S", "city": "Richmond", "state": "TX", "zipCode": "77407"}, "geolocation": {"latitude": 29.6639089, "longitude": -95.7382645, "latLng": "29.6639089,-95.7382645"}, "offsite": true}, {"departmentId": "35", "name": "Home Goods"}, {"departmentId": "63", "name": "I-wireless"}, {"departmentId": "65", "name": "Money Services"}, {"departmentId": "02", "name": "Bakery"}, {"departmentId": "03", "name": "Cheese Counter"}, {"departmentId": "36", "name": "Home Fashion And Decor"}, {"departmentId": "89", "name": "Western Union"}, {"departmentId": "0E", "name": "Delivery"}, {"departmentId": "0G", "name": "Meal Kits"}, {"departmentId": "46", "name": "Sushi"}]}, {"locationId": "03482818", "chain": "SHELL COMPANY", "address": {"addressLine1": "2850 FRY RD", "city": "HOUSTON", "state": "TX", "zipCode": "77084"}, "geolocation": {"latitude": 29.810462, "longitude": -95.720119, "latLng": "29.810462,-95.7201190"}, "name": "Shell Company", "departments": [{"departmentId": "10", "name": "Gas Station"}]}, {"locationId": "03482786", "chain": "SHELL COMPANY", "address": {"addressLine1": "2926 NORTH FWY", "city": "HOUSTON", "state": "TX", "zipCode": "77009"}, "geolocation": {"latitude": 29.810467, "longitude": -95.720119, "latLng": "29.810467,-95.7201190"}, "name": "Shell Company", "departments": [{"departmentId": "10", "name": "Gas Station"}]}, {"locationId": "03482933", "chain": "SHELL COMPANY", "address": {"addressLine1": "17255 WESTHEIMER RD", "city": "HOUSTON", "state": "TX", "zipCode": "77082"}, "geolocation": {"latitude": 29.709327, "longitude": -95.6876, "latLng": "29.709327,-95.6876000"}, "name": "Shell Company", "departments": [{"departmentId": "10", "name": "Gas Station"}]}, {"locationId": "03482693", "chain": "SHELL COMPANY", "address": {"addressLine1": "6445 FM 359 RD", "city": "RICHMOND", "state": "TX", "zipCode": "77406"}, "geolocation": {"latitude": 29.63106, "longitude": -95.811317, "latLng": "29.631060,-95.8113170"}, "name": "Shell Company", "departments": [{"departmentId": "10", "name": "Gas Station"}]}, {"locationId": "03400392", "chain": "KROGER", "address": {"addressLine1": "6425 FM 1464 Rd", "city": "Richmond", "state": "TX", "zipCode": "77407", "county": "FORT BEND COUNTY"}, "geolocation": {"latitude": 29.7086816, "longitude": -95.6859098, "latLng": "29.7086816,-95.6859098"}, "name": "Kroger - Clodine", "hours": {"timezone": "America/Chicago", "gmtOffset": "(UTC-06:00) Central Time (US Canada)", "open24": false, "monday": {"open": "06:00", "close": "00:00", "open24": false}, "tuesday": {"open": "06:00", "close": "00:00", "open24": false}, "wednesday": {"open": "06:00", "close": "00:00", "open24": false}, "thursday": {"open": "06:00", "close": "00:00", "open24": false}, "friday": {"open": "06:00", "close": "00:00", "open24": false}, "saturday": {"open": "06:00", "close": "00:00", "open24": false}, "sunday": {"open": "06:00", "close": "00:00", "open24": false}}, "phone": "2812775353", "departments": [{"departmentId": "09", "name": "Pharmacy", "phone": "2812772242", "hours": {"open24": false, "monday": {"open": "09:00", "close": "20:00", "open24": false}, "tuesday": {"open": "09:00", "close": "20:00", "open24": false}, "wednesday": {"open": "09:00", "close": "20:00", "open24": false}, "thursday": {"open": "09:00", "close": "20:00", "open24": false}, "friday": {"open": "09:00", "close": "20:00", "open24": false}, "saturday": {"open": "09:00", "close": "18:00", "open24": false}, "sunday": {"open": "11:00", "close": "18:00", "open24": false}}}, {"departmentId": "21", "name": "Self Checkout"}, {"departmentId": "42", "name": "Walk Up Pharmacy"}, {"departmentId": "55", "name": "Atm"}, {"departmentId": "95", "name": "Diesel"}, {"departmentId": "04", "name": "Meat Department"}, {"departmentId": "05", "name": "Seafood Department"}, {"departmentId": "46", "name": "Sushi"}, {"departmentId": "65", "name": "Money Services"}, {"departmentId": "02", "name": "Bakery"}, {"departmentId": "16", "name": "Drive-thru Pharmacy"}, {"departmentId": "23", "name": "Drug & General Merchandise"}, {"departmentId": "31", "name": "Coin Star"}, {"departmentId": "60", "name": "Red Box"}, {"departmentId": "63", "name": "I-wireless"}, {"departmentId": "69", "name": "Online Deli/Bakery Ordering"}, {"departmentId": "89", "name": "Western Union"}, {"departmentId": "08", "name": "Floral"}, {"departmentId": "10", "name": "Gas Station", "phone": "2812772107", "hours": {"open24": false, "monday": {"open": "06:00", "close": "22:00", "open24": false}, "tuesday": {"open": "06:00", "close": "22:00", "open24": false}, "wednesday": {"open": "06:00", "close": "22:00", "open24": false}, "thursday": {"open": "06:00", "close": "22:00", "open24": false}, "friday": {"open": "06:00", "close": "22:00", "open24": false}, "saturday": {"open": "06:00", "close": "22:00", "open24": false}, "sunday": {"open": "06:00", "close": "22:00", "open24": false}}, "address": {"addressLine1": "6425 FM 1464 Rd", "city": "Richmond", "state": "TX", "zipCode": "77407"}, "geolocation": {"latitude": 29.7086816, "longitude": -95.6859098, "latLng": "29.7086816,-95.6859098"}, "offsite": true}, {"departmentId": "99", "name": "Check Cashing"}, {"departmentId": "44", "name": "Beer"}, {"departmentId": "45", "name": "Wine"}, {"departmentId": "53", "name": "Boar's Head"}, {"departmentId": "01", "name": "Deli"}, {"departmentId": "32", "name": "Natural And Organics"}]}, {"locationId": "03482837", "chain": "SHELL COMPANY", "address": {"addressLine1": "1430 BARKER CYPRESS RD", "city": "HOUSTON", "state": "TX", "zipCode": "77084"}, "geolocation": {"latitude": 29.789583, "longitude": -95.688258, "latLng": "29.789583,-95.6882580"}, "name": "Shell Company", "departments": [{"departmentId": "10", "name": "Gas Station"}]}, {"locationId": "03482704", "chain": "SHELL COMPANY", "address": {"addressLine1": "8545 FM 1464 RD", "city": "RICHMOND", "state": "TX", "zipCode": "77407"}, "geolocation": {"latitude": 29.685551, "longitude": -95.687364, "latLng": "29.685551,-95.6873640"}, "name": "Shell Company", "departments": [{"departmentId": "10", "name": "Gas Station"}]}, {"locationId": "03483196", "chain": "SHELL COMPANY", "address": {"addressLine1": "2925 BARKER CYPRESS RD", "city": "HOUSTON", "state": "TX", "zipCode": "77084"}, "geolocation": {"latitude": 29.812003, "longitude": -95.68743, "latLng": "29.812003,-95.6874300"}, "name": "Shell Company", "departments": [{"departmentId": "10", "name": "Gas Station"}]}, {"locationId": "03482499", "chain": "SHELL COMPANY", "address": {"addressLine1": "225 FM 359 RD S", "city": "BROOKSHIRE", "state": "TX", "zipCode": "77423"}, "geolocation": {"latitude": 29.779722, "longitude": -95.951044, "latLng": "29.779722,-95.9510440"}, "name": "Shell Company", "departments": [{"departmentId": "10", "name": "Gas Station"}]}, {"locationId": "03482792", "chain": "SHELL COMPANY", "address": {"addressLine1": "19218 CLAY RD", "city": "KATY", "state": "TX", "zipCode": "77449"}, "geolocation": {"latitude": 29.831493, "longitude": -95.702924, "latLng": "29.831493,-95.7029240"}, "name": "Shell Company", "departments": [{"departmentId": "10", "name": "Gas Station"}]}, {"locationId": "03483290", "chain": "SHELL COMPANY", "address": {"addressLine1": "WESTPARK AND VINEYARD DR", "city": "HOUSTON", "state": "TX", "zipCode": "77082"}, "geolocation": {"latitude": 29.711885, "longitude": -95.666703, "latLng": "29.711885,-95.6667030"}, "name": "Shell Company", "departments": [{"departmentId": "10", "name": "Gas Station"}]}, {"locationId": "03482762", "chain": "SHELL COMPANY", "address": {"addressLine1": "9445 CLODINE RD", "city": "HOUSTON", "state": "TX", "zipCode": "77083"}, "geolocation": {"latitude": 29.677175, "longitude": -95.67976, "latLng": "29.677175,-95.6797600"}, "name": "Shell Company", "departments": [{"departmentId": "10", "name": "Gas Station"}]}, {"locationId": "03483330", "chain": "SHELL COMPANY", "address": {"addressLine1": "15639 WESTPARK DRIVE", "city": "HOUSTON", "state": "TX", "zipCode": "77082"}, "geolocation": {"latitude": 29.716057, "longitude": -95.659356, "latLng": "29.716057,-95.6593560"}, "name": "Shell Company", "departments": [{"departmentId": "10", "name": "Gas Station"}]}, {"locationId": "03482679", "chain": "SHELL COMPANY", "address": {"addressLine1": "15795 BELLAIRE BLVD", "city": "HOUSTON", "state": "TX", "zipCode": "77083"}, "geolocation": {"latitude": 29.699507, "longitude": -95.664018, "latLng": "29.699507,-95.6640180"}, "name": "Shell Company", "departments": [{"departmentId": "10", "name": "Gas Station"}]}, {"locationId": "03400378", "chain": "KROGER", "address": {"addressLine1": "6055 N Fry Rd", "city": "Katy", "state": "TX", "zipCode": "77449", "county": "HARRIS COUNTY"}, "geolocation": {"latitude": 29.8600669, "longitude": -95.7216807, "latLng": "29.8600669,-95.7216807"}, "name": "Kroger - Eagle Ranch", "hours": {"timezone": "America/Chicago", "gmtOffset": "(UTC-06:00) Central Time (US Canada)", "open24": false, "monday": {"open": "06:00", "close": "23:00", "open24": false}, "tuesday": {"open": "06:00", "close": "23:00", "open24": false}, "wednesday": {"open": "06:00", "close": "23:00", "open24": false}, "thursday": {"open": "06:00", "close": "23:00", "open24": false}, "friday": {"open": "06:00", "close": "23:00", "open24": false}, "saturday": {"open": "06:00", "close": "23:00", "open24": false}, "sunday": {"open": "06:00", "close": "23:00", "open24": false}}, "phone": "2818585774", "departments": [{"departmentId": "63", "name": "I-wireless"}, {"departmentId": "12", "name": "Cosmetics"}, {"departmentId": "17", "name": "Bath"}, {"departmentId": "21", "name": "Self Checkout"}, {"departmentId": "31", "name": "Coin Star"}, {"departmentId": "89", "name": "Western Union"}, {"departmentId": "05", "name": "Seafood Department"}, {"departmentId": "08", "name": "Floral"}, {"departmentId": "10", "name": "Gas Station", "phone": "2818557605", "hours": {"open24": false, "monday": {"open": "06:00", "close": "22:00", "open24": false}, "tuesday": {"open": "06:00", "close": "22:00", "open24": false}, "wednesday": {"open": "06:00", "close": "22:00", "open24": false}, "thursday": {"open": "06:00", "close": "22:00", "open24": false}, "friday": {"open": "06:00", "close": "22:00", "open24": false}, "saturday": {"open": "06:00", "close": "22:00", "open24": false}, "sunday": {"open": "06:00", "close": "22:00", "open24": false}}, "address": {"addressLine1": "6057 N Fry Rd", "city": "Katy", "state": "TX", "zipCode": "77449"}, "geolocation": {"latitude": 29.8600669, "longitude": -95.7216807, "latLng": "29.8600669,-95.7216807"}, "offsite": true}, {"departmentId": "69", "name": "Online Deli/Bakery Ordering"}, {"departmentId": "95", "name": "Diesel"}, {"departmentId": "01", "name": "Deli"}, {"departmentId": "19", "name": "Videos"}, {"departmentId": "32", "name": "Natural And Organics"}, {"departmentId": "13", "name": "Cell Phone"}, {"departmentId": "18", "name": "Books And Magazines"}, {"departmentId": "94", "name": "Pickup"}, {"departmentId": "16", "name": "Drive-thru Pharmacy"}, {"departmentId": "55", "name": "Atm"}, {"departmentId": "65", "name": "Money Services"}, {"departmentId": "14", "name": "Optical"}, {"departmentId": "46", "name": "Sushi"}, {"departmentId": "45", "name": "Wine"}, {"departmentId": "99", "name": "Check Cashing"}, {"departmentId": "02", "name": "Bakery"}, {"departmentId": "23", "name": "Drug & General Merchandise"}, {"departmentId": "42", "name": "Walk Up Pharmacy"}, {"departmentId": "53", "name": "Boar's Head"}, {"departmentId": "60", "name": "Red Box"}, {"departmentId": "04", "name": "Meat Department"}, {"departmentId": "09", "name": "Pharmacy", "phone": "2818587613", "hours": {"open24": false, "monday": {"open": "09:00", "close": "20:00", "open24": false}, "tuesday": {"open": "09:00", "close": "20:00", "open24": false}, "wednesday": {"open": "09:00", "close": "20:00", "open24": false}, "thursday": {"open": "09:00", "close": "20:00", "open24": false}, "friday": {"open": "09:00", "close": "20:00", "open24": false}, "saturday": {"open": "09:00", "close": "18:00", "open24": false}, "sunday": {"open": "11:00", "close": "18:00", "open24": false}}}, {"departmentId": "44", "name": "Beer"}]}, {"locationId": "03482532", "chain": "SHELL COMPANY", "address": {"addressLine1": "1385 FM 359 RD", "city": "RICHMOND", "state": "TX", "zipCode": "77406"}, "geolocation": {"latitude": 29.61471, "longitude": -95.743653, "latLng": "29.614710,-95.7436530"}, "name": "Shell Company", "departments": [{"departmentId": "10", "name": "Gas Station"}]}, {"locationId": "03483050", "chain": "SHELL COMPANY", "address": {"addressLine1": "2747 HIGHWAY 6 S", "city": "HOUSTON", "state": "TX", "zipCode": "77082"}, "geolocation": {"latitude": 29.729527, "longitude": -95.643532, "latLng": "29.729527,-95.6435320"}, "name": "Shell Company", "departments": [{"departmentId": "10", "name": "Gas Station"}]}, {"locationId": "03483351", "chain": "SHELL COMPANY", "address": {"addressLine1": "19922 KIETH HARROW BLVD", "city": "KATY", "state": "TX", "zipCode": "77449"}, "geolocation": {"latitude": 29.848469, "longitude": -95.694144, "latLng": "29.848469,-95.6941440"}, "name": "Shell Company", "departments": [{"departmentId": "10", "name": "Gas Station"}]}, {"locationId": "03483417", "chain": "SHELL COMPANY", "address": {"addressLine1": "1865 FM 359", "city": "BROOKSHIRE", "state": "TX", "zipCode": "77423"}, "geolocation": {"latitude": 29.800015, "longitude": -95.969497, "latLng": "29.800015,-95.9694970"}, "name": "Shell Company", "departments": [{"departmentId": "10", "name": "Gas Station"}]}, {"locationId": "03482581", "chain": "SHELL COMPANY", "address": {"addressLine1": "1219 HIGHWAY 6 N", "city": "HOUSTON", "state": "TX", "zipCode": "77084"}, "geolocation": {"latitude": 29.788375, "longitude": -95.645304, "latLng": "29.788375,-95.6453040"}, "name": "Shell Company", "departments": [{"departmentId": "10", "name": "Gas Station"}]}, {"locationId": "03483230", "chain": "SHELL COMPANY", "address": {"addressLine1": "8335 HIGHWAY 6 S", "city": "HOUSTON", "state": "TX", "zipCode": "77083"}, "geolocation": {"latitude": 29.690162, "longitude": -95.643137, "latLng": "29.690162,-95.6431370"}, "name": "Shell Company", "departments": [{"departmentId": "10", "name": "Gas Station"}]}, {"locationId": "03482655", "chain": "SHELL COMPANY", "address": {"addressLine1": "20449 FM 529", "city": "KATY", "state": "TX", "zipCode": "77449"}, "geolocation": {"latitude": 29.879706, "longitude": -95.719034, "latLng": "29.879706,-95.7190340"}, "name": "Shell Company", "departments": [{"departmentId": "10", "name": "Gas Station"}]}, {"locationId": "03400349", "chain": "KROGER", "address": {"addressLine1": "1520 Eldridge Pkwy", "city": "Houston", "state": "TX", "zipCode": "77077", "county": "HARRIS COUNTY"}, "geolocation": {"latitude": 29.7575194, "longitude": -95.6273977, "latLng": "29.7575194,-95.6273977"}, "name": "Kroger - Briar Forest", "hours": {"timezone": "America/Chicago", "gmtOffset": "(UTC-06:00) Central Time (US Canada)", "open24": false, "monday": {"open": "06:00", "close": "00:00", "open24": false}, "tuesday": {"open": "06:00", "close": "00:00", "open24": false}, "wednesday": {"open": "06:00", "close": "00:00", "open24": false}, "thursday": {"open": "06:00", "close": "00:00", "open24": false}, "friday": {"open": "06:00", "close": "00:00", "open24": false}, "saturday": {"open": "06:00", "close": "00:00", "open24": false}, "sunday": {"open": "06:00", "close": "00:00", "open24": false}}, "phone": "2814966063", "departments": [{"departmentId": "23", "name": "Drug & General Merchandise"}, {"departmentId": "32", "name": "Natural And Organics"}, {"departmentId": "44", "name": "Beer"}, {"departmentId": "45", "name": "Wine"}, {"departmentId": "46", "name": "Sushi"}, {"departmentId": "0G", "name": "Meal Kits"}, {"departmentId": "12", "name": "Cosmetics"}, {"departmentId": "31", "name": "Coin Star"}, {"departmentId": "50", "name": "Olive Bar"}, {"departmentId": "65", "name": "Money Services"}, {"departmentId": "94", "name": "Pickup"}, {"departmentId": "01", "name": "Deli"}, {"departmentId": "05", "name": "Seafood Department"}, {"departmentId": "21", "name": "Self Checkout"}, {"departmentId": "89", "name": "Western Union"}, {"departmentId": "99", "name": "Check Cashing"}, {"departmentId": "03", "name": "Cheese Counter"}, {"departmentId": "08", "name": "Floral"}, {"departmentId": "0E", "name": "Delivery"}, {"departmentId": "63", "name": "I-wireless"}, {"departmentId": "04", "name": "Meat Department"}, {"departmentId": "53", "name": "Boar's Head"}, {"departmentId": "69", "name": "Online Deli/Bakery Ordering"}, {"departmentId": "51", "name": "Tortillaria"}, {"departmentId": "30", "name": "Salad Bar"}, {"departmentId": "40", "name": "Coffee Bar"}, {"departmentId": "48", "name": "Starbucks"}, {"departmentId": "60", "name": "Red Box"}, {"departmentId": "02", "name": "Bakery"}, {"departmentId": "0C", "name": "Scan, Bag, Go"}, {"departmentId": "58", "name": "Free Wireless Access"}, {"departmentId": "09", "name": "Pharmacy", "phone": "2814967719", "hours": {"open24": false, "monday": {"open": "09:00", "close": "20:00", "open24": false}, "tuesday": {"open": "09:00", "close": "20:00", "open24": false}, "wednesday": {"open": "09:00", "close": "20:00", "open24": false}, "thursday": {"open": "09:00", "close": "20:00", "open24": false}, "friday": {"open": "09:00", "close": "20:00", "open24": false}, "saturday": {"open": "09:00", "close": "18:00", "open24": false}, "sunday": {"open": "11:00", "close": "18:00", "open24": false}}}]}, {"locationId": "03400347", "chain": "KROGER", "address": {"addressLine1": "9303 Highway 6 S", "city": "Houston", "state": "TX", "zipCode": "77083", "county": "FORT BEND COUNTY"}, "geolocation": {"latitude": 29.6782723, "longitude": -95.6410691, "latLng": "29.6782723,-95.6410691"}, "name": "Kroger - Bissonett", "hours": {"timezone": "America/Chicago", "gmtOffset": "(UTC-06:00) Central Time (US Canada)", "open24": false, "monday": {"open": "06:00", "close": "00:00", "open24": false}, "tuesday": {"open": "06:00", "close": "00:00", "open24": false}, "wednesday": {"open": "06:00", "close": "00:00", "open24": false}, "thursday": {"open": "06:00", "close": "00:00", "open24": false}, "friday": {"open": "06:00", "close": "00:00", "open24": false}, "saturday": {"open": "06:00", "close": "00:00", "open24": false}, "sunday": {"open": "06:00", "close": "00:00", "open24": false}}, "phone": "7134742100", "departments": [{"departmentId": "63", "name": "I-wireless"}, {"departmentId": "94", "name": "Pickup"}, {"departmentId": "99", "name": "Check Cashing"}, {"departmentId": "01", "name": "Deli"}, {"departmentId": "09", "name": "Pharmacy", "phone": "7134742111", "hours": {"open24": false, "monday": {"open": "09:00", "close": "20:00", "open24": false}, "tuesday": {"open": "09:00", "close": "20:00", "open24": false}, "wednesday": {"open": "09:00", "close": "20:00", "open24": false}, "thursday": {"open": "09:00", "close": "20:00", "open24": false}, "friday": {"open": "09:00", "close": "20:00", "open24": false}, "saturday": {"open": "09:00", "close": "18:00", "open24": false}, "sunday": {"open": "11:00", "close": "18:00", "open24": false}}}, {"departmentId": "32", "name": "Natural And Organics"}, {"departmentId": "45", "name": "Wine"}, {"departmentId": "03", "name": "Cheese Counter"}, {"departmentId": "04", "name": "Meat Department"}, {"departmentId": "05", "name": "Seafood Department"}, {"departmentId": "08", "name": "Floral"}, {"departmentId": "12", "name": "Cosmetics"}, {"departmentId": "02", "name": "Bakery"}, {"departmentId": "23", "name": "Drug & General Merchandise"}, {"departmentId": "65", "name": "Money Services"}, {"departmentId": "21", "name": "Self Checkout"}, {"departmentId": "31", "name": "Coin Star"}, {"departmentId": "46", "name": "Sushi"}, {"departmentId": "51", "name": "Tortillaria"}, {"departmentId": "60", "name": "Red Box"}, {"departmentId": "11", "name": "Bank"}, {"departmentId": "16", "name": "Drive-thru Pharmacy"}, {"departmentId": "44", "name": "Beer"}, {"departmentId": "53", "name": "Boar's Head"}, {"departmentId": "69", "name": "Online Deli/Bakery Ordering"}, {"departmentId": "10", "name": "Gas Station", "phone": "7134742120", "hours": {"open24": false, "monday": {"open": "06:00", "close": "22:00", "open24": false}, "tuesday": {"open": "06:00", "close": "22:00", "open24": false}, "wednesday": {"open": "06:00", "close": "22:00", "open24": false}, "thursday": {"open": "06:00", "close": "22:00", "open24": false}, "friday": {"open": "06:00", "close": "22:00", "open24": false}, "saturday": {"open": "06:00", "close": "22:00", "open24": false}, "sunday": {"open": "06:00", "close": "22:00", "open24": false}}, "address": {"addressLine1": "9311 Highway 6 S", "city": "Houston", "state": "TX", "zipCode": "77083"}, "geolocation": {"latitude": 29.6782723, "longitude": -95.6410691, "latLng": "29.6782723,-95.6410691"}, "offsite": true}, {"departmentId": "89", "name": "Western Union"}]}, {"locationId": "03482763", "chain": "SHELL COMPANY", "address": {"addressLine1": "1402 ELDRIDGE PKWY", "city": "HOUSTON", "state": "TX", "zipCode": "77077"}, "geolocation": {"latitude": 29.759523, "longitude": -95.625965, "latLng": "29.759523,-95.6259650"}, "name": "Shell Company", "departments": [{"departmentId": "10", "name": "Gas Station"}]}, {"locationId": "03482798", "chain": "SHELL COMPANY", "address": {"addressLine1": "17230 OLD RICHMOND ROAD", "city": "SUGAR LAND", "state": "TX", "zipCode": "77478"}, "geolocation": {"latitude": 29.641161, "longitude": -95.662902, "latLng": "29.641161,-95.6629020"}, "name": "Shell Company", "departments": [{"departmentId": "10", "name": "Gas Station"}]}, {"locationId": "03483262", "chain": "SHELL COMPANY", "address": {"addressLine1": "6285 BARKER CYPRESS RD", "city": "HOUSTON", "state": "TX", "zipCode": "77084"}, "geolocation": {"latitude": 29.865028, "longitude": -95.683628, "latLng": "29.865028,-95.6836280"}, "name": "Shell Company", "departments": [{"departmentId": "10", "name": "Gas Station"}]}, {"locationId": "03482936", "chain": "SHELL COMPANY", "address": {"addressLine1": "1101 JACKSON ST", "city": "RICHMOND", "state": "TX", "zipCode": "77469"}, "geolocation": {"latitude": 29.579568, "longitude": -95.767377, "latLng": "29.579568,-95.7673770"}, "name": "Shell Company", "departments": [{"departmentId": "10", "name": "Gas Station"}]}, {"locationId": "03483152", "chain": "SHELL COMPANY", "address": {"addressLine1": "11750 S HIGHWAY 6", "city": "SUGAR LAND", "state": "TX", "zipCode": "77498"}, "geolocation": {"latitude": 29.644871, "longitude": -95.652122, "latLng": "29.644871,-95.6521220"}, "name": "Shell Company", "departments": [{"departmentId": "10", "name": "Gas Station"}]}, {"locationId": "03400375", "chain": "KROGER", "address": {"addressLine1": "11565 S Highway 6", "city": "Sugar Land", "state": "TX", "zipCode": "77498", "county": "FORT BEND COUNTY"}, "geolocation": {"latitude": 29.6479694, "longitude": -95.6494359, "latLng": "29.6479694,-95.6494359"}, "name": "Kroger - West Airport", "hours": {"timezone": "America/Chicago", "gmtOffset": "(UTC-06:00) Central Time (US Canada)", "open24": false, "monday": {"open": "06:00", "close": "00:00", "open24": false}, "tuesday": {"open": "06:00", "close": "00:00", "open24": false}, "wednesday": {"open": "06:00", "close": "00:00", "open24": false}, "thursday": {"open": "06:00", "close": "00:00", "open24": false}, "friday": {"open": "06:00", "close": "00:00", "open24": false}, "saturday": {"open": "06:00", "close": "00:00", "open24": false}, "sunday": {"open": "06:00", "close": "00:00", "open24": false}}, "phone": "2813401500", "departments": [{"departmentId": "21", "name": "Self Checkout"}, {"departmentId": "53", "name": "Boar's Head"}, {"departmentId": "89", "name": "Western Union"}, {"departmentId": "65", "name": "Money Services"}, {"departmentId": "04", "name": "Meat Department"}, {"departmentId": "05", "name": "Seafood Department"}, {"departmentId": "10", "name": "Gas Station", "phone": "2813401513", "hours": {"open24": false, "monday": {"open": "06:00", "close": "22:00", "open24": false}, "tuesday": {"open": "06:00", "close": "22:00", "open24": false}, "wednesday": {"open": "06:00", "close": "22:00", "open24": false}, "thursday": {"open": "06:00", "close": "22:00", "open24": false}, "friday": {"open": "06:00", "close": "22:00", "open24": false}, "saturday": {"open": "06:00", "close": "22:00", "open24": false}, "sunday": {"open": "06:00", "close": "22:00", "open24": false}}, "address": {"addressLine1": "11565A S Highway 6", "city": "Sugar Land", "state": "TX", "zipCode": "77498"}, "geolocation": {"latitude": 29.6479694, "longitude": -95.6494359, "latLng": "29.6479694,-95.6494359"}, "offsite": true}, {"departmentId": "08", "name": "Floral"}, {"departmentId": "32", "name": "Natural And Organics"}, {"departmentId": "45", "name": "Wine"}, {"departmentId": "46", "name": "Sushi"}, {"departmentId": "86", "name": "Propane"}, {"departmentId": "02", "name": "Bakery"}, {"departmentId": "16", "name": "Drive-thru Pharmacy"}, {"departmentId": "23", "name": "Drug & General Merchandise"}, {"departmentId": "31", "name": "Coin Star"}, {"departmentId": "63", "name": "I-wireless"}, {"departmentId": "09", "name": "Pharmacy", "phone": "2813401504", "hours": {"open24": false, "monday": {"open": "09:00", "close": "20:00", "open24": false}, "tuesday": {"open": "09:00", "close": "20:00", "open24": false}, "wednesday": {"open": "09:00", "close": "20:00", "open24": false}, "thursday": {"open": "09:00", "close": "20:00", "open24": false}, "friday": {"open": "09:00", "close": "20:00", "open24": false}, "saturday": {"open": "09:00", "close": "18:00", "open24": false}, "sunday": {"open": "11:00", "close": "18:00", "open24": false}}}, {"departmentId": "44", "name": "Beer"}, {"departmentId": "60", "name": "Red Box"}, {"departmentId": "12", "name": "Cosmetics"}, {"departmentId": "58", "name": "Free Wireless Access"}, {"departmentId": "01", "name": "Deli"}, {"departmentId": "69", "name": "Online Deli/Bakery Ordering"}, {"departmentId": "96", "name": "E-85"}, {"departmentId": "48", "name": "Starbucks"}, {"departmentId": "94", "name": "Pickup"}, {"departmentId": "99", "name": "Check Cashing"}]}, {"locationId": "03483072", "chain": "SHELL COMPANY", "address": {"addressLine1": "14009 FM 1464 RD", "city": "SUGAR LAND", "state": "TX", "zipCode": "77498"}, "geolocation": {"latitude": 29.611029, "longitude": -95.683424, "latLng": "29.611029,-95.6834240"}, "name": "Shell Company", "departments": [{"departmentId": "10", "name": "Gas Station"}]}, {"locationId": "03400352", "chain": "KROGER", "address": {"addressLine1": "18030 FM 529 Rd", "city": "Cypress", "state": "TX", "zipCode": "77433", "county": "HARRIS COUNTY"}, "geolocation": {"latitude": 29.881445, "longitude": -95.68556, "latLng": "29.881445,-95.68556"}, "name": "Kroger - Barker Cypress", "hours": {"timezone": "America/Chicago", "gmtOffset": "(UTC-06:00) Central Time (US Canada)", "open24": false, "monday": {"open": "06:00", "close": "23:00", "open24": false}, "tuesday": {"open": "06:00", "close": "23:00", "open24": false}, "wednesday": {"open": "06:00", "close": "23:00", "open24": false}, "thursday": {"open": "06:00", "close": "23:00", "open24": false}, "friday": {"open": "06:00", "close": "23:00", "open24": false}, "saturday": {"open": "06:00", "close": "23:00", "open24": false}, "sunday": {"open": "06:00", "close": "23:00", "open24": false}}, "phone": "2815509493", "departments": [{"departmentId": "31", "name": "Coin Star"}, {"departmentId": "45", "name": "Wine"}, {"departmentId": "53", "name": "Boar's Head"}, {"departmentId": "89", "name": "Western Union"}, {"departmentId": "02", "name": "Bakery"}, {"departmentId": "10", "name": "Gas Station", "phone": "2814634112", "hours": {"open24": false, "monday": {"open": "06:00", "close": "22:00", "open24": false}, "tuesday": {"open": "06:00", "close": "22:00", "open24": false}, "wednesday": {"open": "06:00", "close": "22:00", "open24": false}, "thursday": {"open": "06:00", "close": "22:00", "open24": false}, "friday": {"open": "06:00", "close": "22:00", "open24": false}, "saturday": {"open": "06:00", "close": "22:00", "open24": false}, "sunday": {"open": "06:00", "close": "22:00", "open24": false}}, "address": {"addressLine1": "18030 FM 529 Rd", "city": "Cypress", "state": "TX", "zipCode": "77433"}, "geolocation": {"latitude": 29.881445, "longitude": -95.68556, "latLng": "29.881445,-95.68556"}, "offsite": true}, {"departmentId": "21", "name": "Self Checkout"}, {"departmentId": "23", "name": "Drug & General Merchandise"}, {"departmentId": "46", "name": "Sushi"}, {"departmentId": "51", "name": "Tortillaria"}, {"departmentId": "60", "name": "Red Box"}, {"departmentId": "65", "name": "Money Services"}, {"departmentId": "05", "name": "Seafood Department"}, {"departmentId": "09", "name": "Pharmacy", "phone": "2815506942", "hours": {"open24": false, "monday": {"open": "09:00", "close": "20:00", "open24": false}, "tuesday": {"open": "09:00", "close": "20:00", "open24": false}, "wednesday": {"open": "09:00", "close": "20:00", "open24": false}, "thursday": {"open": "09:00", "close": "20:00", "open24": false}, "friday": {"open": "09:00", "close": "20:00", "open24": false}, "saturday": {"open": "09:00", "close": "18:00", "open24": false}, "sunday": {"open": "11:00", "close": "18:00", "open24": false}}}, {"departmentId": "16", "name": "Drive-thru Pharmacy"}, {"departmentId": "32", "name": "Natural And Organics"}, {"departmentId": "69", "name": "Online Deli/Bakery Ordering"}, {"departmentId": "94", "name": "Pickup"}, {"departmentId": "55", "name": "Atm"}, {"departmentId": "63", "name": "I-wireless"}, {"departmentId": "99", "name": "Check Cashing"}, {"departmentId": "01", "name": "Deli"}, {"departmentId": "04", "name": "Meat Department"}, {"departmentId": "08", "name": "Floral"}, {"departmentId": "50", "name": "Olive Bar"}, {"departmentId": "44", "name": "Beer"}]}, {"locationId": "03482833", "chain": "SHELL COMPANY", "address": {"addressLine1": "16955 W LITTLE YORK RD", "city": "HOUSTON", "state": "TX", "zipCode": "77084"}, "geolocation": {"latitude": 29.864744, "longitude": -95.662916, "latLng": "29.864744,-95.6629160"}, "name": "Shell Company", "departments": [{"departmentId": "10", "name": "Gas Station"}]}, {"locationId": "03483087", "chain": "SHELL COMPANY", "address": {"addressLine1": "14703 MEMORIAL DR", "city": "HOUSTON", "state": "TX", "zipCode": "77079"}, "geolocation": {"latitude": 29.769859, "longitude": -95.609061, "latLng": "29.769859,-95.6090610"}, "name": "Shell Company", "departments": [{"departmentId": "10", "name": "Gas Station"}]}, {"locationId": "03400735", "chain": "KROGER", "address": {"addressLine1": "12555 Briar Forest Dr", "city": "Houston", "state": "TX", "zipCode": "77077", "county": "HARRIS COUNTY"}, "geolocation": {"latitude": 29.7524539, "longitude": -95.605287, "latLng": "29.7524539,-95.605287"}, "name": "Kroger - Dairy Ashford", "hours": {"timezone": "America/Chicago", "gmtOffset": "(UTC-06:00) Central Time (US Canada)", "open24": false, "monday": {"open": "06:00", "close": "00:00", "open24": false}, "tuesday": {"open": "06:00", "close": "00:00", "open24": false}, "wednesday": {"open": "06:00", "close": "00:00", "open24": false}, "thursday": {"open": "06:00", "close": "00:00", "open24": false}, "friday": {"open": "06:00", "close": "00:00", "open24": false}, "saturday": {"open": "06:00", "close": "00:00", "open24": false}, "sunday": {"open": "06:00", "close": "00:00", "open24": false}}, "phone": "2814969186", "departments": [{"departmentId": "51", "name": "Tortillaria"}, {"departmentId": "53", "name": "Boar's Head"}, {"departmentId": "69", "name": "Online Deli/Bakery Ordering"}, {"departmentId": "89", "name": "Western Union"}, {"departmentId": "99", "name": "Check Cashing"}, {"departmentId": "23", "name": "Drug & General Merchandise"}, {"departmentId": "32", "name": "Natural And Organics"}, {"departmentId": "45", "name": "Wine"}, {"departmentId": "65", "name": "Money Services"}, {"departmentId": "05", "name": "Seafood Department"}, {"departmentId": "21", "name": "Self Checkout"}, {"departmentId": "10", "name": "Gas Station", "phone": "2817526953", "hours": {"open24": false, "monday": {"open": "06:00", "close": "22:00", "open24": false}, "tuesday": {"open": "06:00", "close": "22:00", "open24": false}, "wednesday": {"open": "06:00", "close": "22:00", "open24": false}, "thursday": {"open": "06:00", "close": "22:00", "open24": false}, "friday": {"open": "06:00", "close": "22:00", "open24": false}, "saturday": {"open": "06:00", "close": "22:00", "open24": false}, "sunday": {"open": "06:00", "close": "22:00", "open24": false}}, "address": {"addressLine1": "12557 Briar Forest Dr", "city": "Houston", "state": "TX", "zipCode": "77077"}, "geolocation": {"latitude": 29.7527751, "longitude": -95.6053085, "latLng": "29.7527751,-95.6053085"}, "offsite": true}, {"departmentId": "44", "name": "Beer"}, {"departmentId": "18", "name": "Books And Magazines"}, {"departmentId": "31", "name": "Coin Star"}, {"departmentId": "46", "name": "Sushi"}, {"departmentId": "60", "name": "Red Box"}, {"departmentId": "09", "name": "Pharmacy", "phone": "2814961092", "hours": {"open24": false, "monday": {"open": "09:00", "close": "20:00", "open24": false}, "tuesday": {"open": "09:00", "close": "20:00", "open24": false}, "wednesday": {"open": "09:00", "close": "20:00", "open24": false}, "thursday": {"open": "09:00", "close": "20:00", "open24": false}, "friday": {"open": "09:00", "close": "20:00", "open24": false}, "saturday": {"open": "09:00", "close": "18:00", "open24": false}, "sunday": {"open": "11:00", "close": "18:00", "open24": false}}}, {"departmentId": "17", "name": "Bath"}, {"departmentId": "19", "name": "Videos"}, {"departmentId": "63", "name": "I-wireless"}, {"departmentId": "03", "name": "Cheese Counter"}, {"departmentId": "16", "name": "Drive-thru Pharmacy"}, {"departmentId": "12", "name": "Cosmetics"}, {"departmentId": "42", "name": "Walk Up Pharmacy"}, {"departmentId": "01", "name": "Deli"}, {"departmentId": "08", "name": "Floral"}, {"departmentId": "07", "name": "Restaurant"}, {"departmentId": "55", "name": "Atm"}, {"departmentId": "02", "name": "Bakery"}, {"departmentId": "04", "name": "Meat Department"}]}, {"locationId": "03482674", "chain": "SHELL COMPANY", "address": {"addressLine1": "3504 S DAIRY ASHFORD RD", "city": "HOUSTON", "state": "TX", "zipCode": "77082"}, "geolocation": {"latitude": 29.723357, "longitude": -95.604982, "latLng": "29.723357,-95.6049820"}, "name": "Shell Company", "departments": [{"departmentId": "10", "name": "Gas Station"}]}, {"locationId": "03483374", "chain": "SHELL COMPANY", "address": {"addressLine1": "6026 HWY 36", "city": "ROSENBERG", "state": "TX", "zipCode": "77471"}, "geolocation": {"latitude": 29.584077, "longitude": -95.910009, "latLng": "29.584077,-95.9100090"}, "name": "Shell Company", "departments": [{"departmentId": "10", "name": "Gas Station"}]}, {"locationId": "03483314", "chain": "SHELL COMPANY", "address": {"addressLine1": "12550 BELLAIRE BLVD", "city": "HOUSTON", "state": "TX", "zipCode": "77072"}, "geolocation": {"latitude": 29.70376, "longitude": -95.604111, "latLng": "29.703760,-95.6041110"}, "name": "Shell Company", "departments": [{"departmentId": "10", "name": "Gas Station"}]}, {"locationId": "03482603", "chain": "SHELL COMPANY", "address": {"addressLine1": "5515 HIGHWAY 6", "city": "HOUSTON", "state": "TX", "zipCode": "77084"}, "geolocation": {"latitude": 29.856617, "longitude": -95.644352, "latLng": "29.856617,-95.6443520"}, "name": "Shell Company", "departments": [{"departmentId": "10", "name": "Gas Station"}]}, {"locationId": "03483317", "chain": "SHELL COMPANY", "address": {"addressLine1": "7127 QUEENSTON BLVD", "city": "HOUSTON", "state": "TX", "zipCode": "77095"}, "geolocation": {"latitude": 29.88181, "longitude": -95.668872, "latLng": "29.881810,-95.6688720"}, "name": "Shell Company", "departments": [{"departmentId": "10", "name": "Gas Station"}]}, {"locationId": "03400161", "chain": "KROGER", "address": {"addressLine1": "14344 Memorial Dr", "city": "Houston", "state": "TX", "zipCode": "77079", "county": "HARRIS COUNTY"}, "geolocation": {"latitude": 29.7711949, "longitude": -95.5992075, "latLng": "29.7711949,-95.5992075"}, "name": "Kroger - Country Place", "hours": {"timezone": "America/Chicago", "gmtOffset": "(UTC-06:00) Central Time (US Canada)", "open24": false, "monday": {"open": "06:00", "close": "00:00", "open24": false}, "tuesday": {"open": "06:00", "close": "00:00", "open24": false}, "wednesday": {"open": "06:00", "close": "00:00", "open24": false}, "thursday": {"open": "06:00", "close": "00:00", "open24": false}, "friday": {"open": "06:00", "close": "00:00", "open24": false}, "saturday": {"open": "06:00", "close": "00:00", "open24": false}, "sunday": {"open": "06:00", "close": "00:00", "open24": false}}, "phone": "2814931702", "departments": [{"departmentId": "58", "name": "Free Wireless Access"}, {"departmentId": "63", "name": "I-wireless"}, {"departmentId": "65", "name": "Money Services"}, {"departmentId": "01", "name": "Deli"}, {"departmentId": "02", "name": "Bakery"}, {"departmentId": "21", "name": "Self Checkout"}, {"departmentId": "23", "name": "Drug & General Merchandise"}, {"departmentId": "44", "name": "Beer"}, {"departmentId": "69", "name": "Online Deli/Bakery Ordering"}, {"departmentId": "04", "name": "Meat Department"}, {"departmentId": "31", "name": "Coin Star"}, {"departmentId": "42", "name": "Walk Up Pharmacy"}, {"departmentId": "55", "name": "Atm"}, {"departmentId": "60", "name": "Red Box"}, {"departmentId": "08", "name": "Floral"}, {"departmentId": "09", "name": "Pharmacy", "phone": "2814973565", "hours": {"open24": false, "monday": {"open": "09:00", "close": "20:00", "open24": false}, "tuesday": {"open": "09:00", "close": "20:00", "open24": false}, "wednesday": {"open": "09:00", "close": "20:00", "open24": false}, "thursday": {"open": "09:00", "close": "20:00", "open24": false}, "friday": {"open": "09:00", "close": "20:00", "open24": false}, "saturday": {"open": "09:00", "close": "18:00", "open24": false}, "sunday": {"open": "11:00", "close": "18:00", "open24": false}}}, {"departmentId": "32", "name": "Natural And Organics"}, {"departmentId": "89", "name": "Western Union"}, {"departmentId": "05", "name": "Seafood Department"}, {"departmentId": "45", "name": "Wine"}, {"departmentId": "53", "name": "Boar's Head"}, {"departmentId": "94", "name": "Pickup"}, {"departmentId": "99", "name": "Check Cashing"}]}, {"locationId": "03482698", "chain": "SHELL COMPANY", "address": {"addressLine1": "2575 ELDRIDGE RD", "city": "SUGAR LAND", "state": "TX", "zipCode": "77478"}, "geolocation": {"latitude": 29.656763, "longitude": -95.619429, "latLng": "29.656763,-95.6194290"}, "name": "Shell Company", "departments": [{"departmentId": "10", "name": "Gas Station"}]}, {"locationId": "03482677", "chain": "SHELL COMPANY", "address": {"addressLine1": "306 FM 359 RD S", "city": "BROOKSHIRE", "state": "TX", "zipCode": "77423"}, "geolocation": {"latitude": 29.849549, "longitude": -95.992411, "latLng": "29.849549,-95.9924110"}, "name": "Shell Company", "departments": [{"departmentId": "10", "name": "Gas Station"}]}, {"locationId": "03482813", "chain": "SHELL COMPANY", "address": {"addressLine1": "14002 MEMORIAL DR", "city": "HOUSTON", "state": "TX", "zipCode": "77079"}, "geolocation": {"latitude": 29.771245, "longitude": -95.590276, "latLng": "29.771245,-95.5902760"}, "name": "Shell Company", "departments": [{"departmentId": "10", "name": "Gas Station"}]}, {"locationId": "03483331", "chain": "SHELL COMPANY", "address": {"addressLine1": "12306 BEECHNUT ST", "city": "HOUSTON", "state": "TX", "zipCode": "77072"}, "geolocation": {"latitude": 29.689393, "longitude": -95.596376, "latLng": "29.689393,-95.5963760"}, "name": "Shell Company", "departments": [{"departmentId": "10", "name": "Gas Station"}]}, {"locationId": "03482701", "chain": "SHELL COMPANY", "address": {"addressLine1": "11617B KATY FWY", "city": "HOUSTON", "state": "TX", "zipCode": "77079"}, "geolocation": {"latitude": 29.783859, "longitude": -95.589762, "latLng": "29.783859,-95.5897620"}, "name": "Shell Company", "departments": [{"departmentId": "10", "name": "Gas Station"}]}, {"locationId": "03483064", "chain": "SHELL COMPANY", "address": {"addressLine1": "18725 UNIVERSITY BLVD", "city": "SUGAR LAND", "state": "TX", "zipCode": "77479"}, "geolocation": {"latitude": 29.612338, "longitude": -95.641533, "latLng": "29.612338,-95.6415330"}, "name": "Shell Company", "departments": [{"departmentId": "10", "name": "Gas Station"}]}, {"locationId": "03483177", "chain": "SHELL COMPANY", "address": {"addressLine1": "8250 HIGHWAY 90A", "city": "SUGAR LAND", "state": "TX", "zipCode": "77478"}, "geolocation": {"latitude": 29.620079, "longitude": -95.632545, "latLng": "29.620079,-95.6325450"}, "name": "Shell Company", "departments": [{"departmentId": "10", "name": "Gas Station"}]}, {"locationId": "03482465", "chain": "SHELL COMPANY", "address": {"addressLine1": "11831 BELLAIRE BLVD", "city": "HOUSTON", "state": "TX", "zipCode": "77072"}, "geolocation": {"latitude": 29.703424, "longitude": -95.587477, "latLng": "29.703424,-95.5874770"}, "name": "Shell Company", "departments": [{"departmentId": "10", "name": "Gas Station"}]}, {"locationId": "03483024", "chain": "SHELL COMPANY", "address": {"addressLine1": "1050 ELDRIDGE RD", "city": "SUGAR LAND", "state": "TX", "zipCode": "77478"}, "geolocation": {"latitude": 29.635819, "longitude": -95.618341, "latLng": "29.635819,-95.6183410"}, "name": "Shell Company", "departments": [{"departmentId": "10", "name": "Gas Station"}]}, {"locationId": "03483324", "chain": "SHELL COMPANY", "address": {"addressLine1": "2406 B F TERRY BLVD", "city": "ROSENBERG", "state": "TX", "zipCode": "77471"}, "geolocation": {"latitude": 29.54775, "longitude": -95.77031, "latLng": "29.547750,-95.7703100"}, "name": "Shell Company", "departments": [{"departmentId": "10", "name": "Gas Station"}]}, {"locationId": "03482854", "chain": "SHELL COMPANY", "address": {"addressLine1": "11414 RICHMOND AVE", "city": "HOUSTON", "state": "TX", "zipCode": "77082"}, "geolocation": {"latitude": 29.728438, "longitude": -95.580658, "latLng": "29.728438,-95.5806580"}, "name": "Shell Company", "departments": [{"departmentId": "10", "name": "Gas Station"}]}, {"locationId": "03482622", "chain": "SHELL COMPANY", "address": {"addressLine1": "3535 FM 762 RD", "city": "RICHMOND", "state": "TX", "zipCode": "77469"}, "geolocation": {"latitude": 29.549275, "longitude": -95.748654, "latLng": "29.549275,-95.7486540"}, "name": "Shell Company", "departments": [{"departmentId": "10", "name": "Gas Station"}]}, {"locationId": "03483030", "chain": "SHELL COMPANY", "address": {"addressLine1": "16722 WEST GRAND PARKWAY", "city": "RICHMOND", "state": "TX", "zipCode": "77469"}, "geolocation": {"latitude": 29.574288, "longitude": -95.68226, "latLng": "29.574288,-95.6822600"}, "name": "Shell Company", "departments": [{"departmentId": "10", "name": "Gas Station"}]}, {"locationId": "03483312", "chain": "SHELL COMPANY", "address": {"addressLine1": "21950 SOUTHWEST FWY", "city": "RICHMOND", "state": "TX", "zipCode": "77469"}, "geolocation": {"latitude": 29.555324, "longitude": -95.71779, "latLng": "29.555324,-95.7177900"}, "name": "Shell Company", "departments": [{"departmentId": "10", "name": "Gas Station"}]}, {"locationId": "03400115", "chain": "KROGER", "address": {"addressLine1": "9703 Barker Cypress Rd.", "city": "Cypress", "state": "TX", "zipCode": "77433", "county": "HARRIS COUNTY"}, "geolocation": {"latitude": 29.9191828, "longitude": -95.689644, "latLng": "29.9191828,-95.689644"}, "name": "Kroger Marketplace - Town Lake", "hours": {"timezone": "America/Chicago", "gmtOffset": "(UTC-06:00) Central Time (US Canada)", "open24": false, "monday": {"open": "06:00", "close": "23:00", "open24": false}, "tuesday": {"open": "06:00", "close": "23:00", "open24": false}, "wednesday": {"open": "06:00", "close": "23:00", "open24": false}, "thursday": {"open": "06:00", "close": "23:00", "open24": false}, "friday": {"open": "06:00", "close": "23:00", "open24": false}, "saturday": {"open": "06:00", "close": "23:00", "open24": false}, "sunday": {"open": "06:00", "close": "23:00", "open24": false}}, "phone": "2817463644", "departments": [{"departmentId": "53", "name": "Boar's Head"}, {"departmentId": "89", "name": "Western Union"}, {"departmentId": "02", "name": "Bakery"}, {"departmentId": "0G", "name": "Meal Kits"}, {"departmentId": "32", "name": "Natural And Organics"}, {"departmentId": "46", "name": "Sushi"}, {"departmentId": "36", "name": "Home Fashion And Decor"}, {"departmentId": "51", "name": "Tortillaria"}, {"departmentId": "55", "name": "Atm"}, {"departmentId": "95", "name": "Diesel"}, {"departmentId": "10", "name": "Gas Station", "phone": "2817463649", "hours": {"open24": false, "monday": {"open": "06:00", "close": "22:00", "open24": false}, "tuesday": {"open": "06:00", "close": "22:00", "open24": false}, "wednesday": {"open": "06:00", "close": "22:00", "open24": false}, "thursday": {"open": "06:00", "close": "22:00", "open24": false}, "friday": {"open": "06:00", "close": "22:00", "open24": false}, "saturday": {"open": "06:00", "close": "22:00", "open24": false}, "sunday": {"open": "06:00", "close": "22:00", "open24": false}}, "address": {"addressLine1": "9703 A Barker Cypress Rd.", "city": "Cypress", "state": "TX", "zipCode": "77433"}, "geolocation": {"latitude": 29.9191828, "longitude": -95.689644, "latLng": "29.9191828,-95.689644"}, "offsite": true}, {"departmentId": "38", "name": "Apparel"}, {"departmentId": "48", "name": "Starbucks"}, {"departmentId": "64", "name": "Baby World"}, {"departmentId": "50", "name": "Olive Bar"}, {"departmentId": "40", "name": "Coffee Bar"}, {"departmentId": "65", "name": "Money Services"}, {"departmentId": "69", "name": "Online Deli/Bakery Ordering"}, {"departmentId": "94", "name": "Pickup"}, {"departmentId": "21", "name": "Self Checkout"}, {"departmentId": "31", "name": "Coin Star"}, {"departmentId": "45", "name": "Wine"}, {"departmentId": "99", "name": "Check Cashing"}, {"departmentId": "03", "name": "Cheese Counter"}, {"departmentId": "09", "name": "Pharmacy", "phone": "2817463645", "hours": {"open24": false, "monday": {"open": "09:00", "close": "20:00", "open24": false}, "tuesday": {"open": "09:00", "close": "20:00", "open24": false}, "wednesday": {"open": "09:00", "close": "20:00", "open24": false}, "thursday": {"open": "09:00", "close": "20:00", "open24": false}, "friday": {"open": "09:00", "close": "20:00", "open24": false}, "saturday": {"open": "09:00", "close": "18:00", "open24": false}, "sunday": {"open": "11:00", "close": "18:00", "open24": false}}}, {"departmentId": "0E", "name": "Delivery"}, {"departmentId": "16", "name": "Drive-thru Pharmacy"}, {"departmentId": "35", "name": "Home Goods"}, {"departmentId": "44", "name": "Beer"}, {"departmentId": "49", "name": "Kitchen Place"}, {"departmentId": "01", "name": "Deli"}, {"departmentId": "05", "name": "Seafood Department"}, {"departmentId": "08", "name": "Floral"}, {"departmentId": "23", "name": "Drug & General Merchandise"}, {"departmentId": "74", "name": "Wine Tasting Bar"}, {"departmentId": "04", "name": "Meat Department"}, {"departmentId": "30", "name": "Salad Bar"}, {"departmentId": "54", "name": "Chef"}, {"departmentId": "66", "name": "Murray's Cheese"}]}, {"locationId": "03483323", "chain": "SHELL COMPANY", "address": {"addressLine1": "23903 KATY FWY", "city": "KATY", "state": "TX", "zipCode": "77494"}, "geolocation": {"latitude": 29.785611, "longitude": -95.57729, "latLng": "29.785611,-95.5772900"}, "name": "Shell Company", "departments": [{"departmentId": "10", "name": "Gas Station"}]}, {"locationId": "03483041", "chain": "SHELL COMPANY", "address": {"addressLine1": "11110 WESTHEIMER RD", "city": "HOUSTON", "state": "TX", "zipCode": "77042"}, "geolocation": {"latitude": 29.737095, "longitude": -95.572195, "latLng": "29.737095,-95.5721950"}, "name": "Shell Company", "departments": [{"departmentId": "10", "name": "Gas Station"}]}, {"locationId": "03482528", "chain": "SHELL COMPANY", "address": {"addressLine1": "3118 1ST ST", "city": "ROSENBERG", "state": "TX", "zipCode": "77471"}, "geolocation": {"latitude": 29.535867, "longitude": -95.808635, "latLng": "29.535867,-95.8086350"}, "name": "Shell Company", "departments": [{"departmentId": "10", "name": "Gas Station"}]}, {"locationId": "03482757", "chain": "SHELL COMPANY", "address": {"addressLine1": "5706 N ELDRIDGE PKWY", "city": "HOUSTON", "state": "TX", "zipCode": "77041"}, "geolocation": {"latitude": 29.85099, "longitude": -95.606042, "latLng": "29.850990,-95.6060420"}, "name": "Shell Company", "departments": [{"departmentId": "10", "name": "Gas Station"}]}, {"locationId": "03482513", "chain": "SHELL COMPANY", "address": {"addressLine1": "14711 FM 529 RD", "city": "HOUSTON", "state": "TX", "zipCode": "77095"}, "geolocation": {"latitude": 29.879135, "longitude": -95.629143, "latLng": "29.879135,-95.6291430"}, "name": "Shell Company", "departments": [{"departmentId": "10", "name": "Gas Station"}]}, {"locationId": "03400010", "chain": "KROGER", "address": {"addressLine1": "24401 Brazos Town Xing", "city": "Rosenberg", "state": "TX", "zipCode": "77471", "county": "FORT BEND COUNTY"}, "geolocation": {"latitude": 29.5415251, "longitude": -95.7507484, "latLng": "29.5415251,-95.7507484"}, "name": "Kroger Marketplace - Rosenberg", "hours": {"timezone": "America/Chicago", "gmtOffset": "(UTC-06:00) Central Time (US Canada)", "open24": false, "monday": {"open": "06:00", "close": "00:00", "open24": false}, "tuesday": {"open": "06:00", "close": "00:00", "open24": false}, "wednesday": {"open": "06:00", "close": "00:00", "open24": false}, "thursday": {"open": "06:00", "close": "00:00", "open24": false}, "friday": {"open": "06:00", "close": "00:00", "open24": false}, "saturday": {"open": "06:00", "close": "00:00", "open24": false}, "sunday": {"open": "06:00", "close": "00:00", "open24": false}}, "phone": "2812321230", "departments": [{"departmentId": "09", "name": "Pharmacy", "phone": "2812321237", "hours": {"open24": false, "monday": {"open": "08:00", "close": "21:00", "open24": false}, "tuesday": {"open": "08:00", "close": "21:00", "open24": false}, "wednesday": {"open": "08:00", "close": "21:00", "open24": false}, "thursday": {"open": "08:00", "close": "21:00", "open24": false}, "friday": {"open": "08:00", "close": "21:00", "open24": false}, "saturday": {"open": "09:00", "close": "19:00", "open24": false}, "sunday": {"open": "11:00", "close": "18:00", "open24": false}}}, {"departmentId": "10", "name": "Gas Station", "phone": "2812321233", "hours": {"open24": false, "monday": {"open": "06:00", "close": "22:00", "open24": false}, "tuesday": {"open": "06:00", "close": "22:00", "open24": false}, "wednesday": {"open": "06:00", "close": "22:00", "open24": false}, "thursday": {"open": "06:00", "close": "22:00", "open24": false}, "friday": {"open": "06:00", "close": "22:00", "open24": false}, "saturday": {"open": "06:00", "close": "22:00", "open24": false}, "sunday": {"open": "06:00", "close": "22:00", "open24": false}}, "address": {"addressLine1": "24401 Brazos Town Xing", "city": "Rosenberg", "state": "TX", "zipCode": "77471"}, "geolocation": {"latitude": 29.5415251, "longitude": -95.7507484, "latLng": "29.5415251,-95.7507484"}, "offsite": true}, {"departmentId": "59", "name": "Bistro"}, {"departmentId": "99", "name": "Check Cashing"}, {"departmentId": "69", "name": "Online Deli/Bakery Ordering"}, {"departmentId": "95", "name": "Diesel"}, {"departmentId": "01", "name": "Deli"}, {"departmentId": "05", "name": "Seafood Department"}, {"departmentId": "32", "name": "Natural And Organics"}, {"departmentId": "54", "name": "Chef"}, {"departmentId": "58", "name": "Free Wireless Access"}, {"departmentId": "46", "name": "Sushi"}, {"departmentId": "51", "name": "Tortillaria"}, {"departmentId": "53", "name": "Boar's Head"}, {"departmentId": "04", "name": "Meat Department"}, {"departmentId": "0E", "name": "Delivery"}, {"departmentId": "31", "name": "Coin Star"}, {"departmentId": "44", "name": "Beer"}, {"departmentId": "45", "name": "Wine"}, {"departmentId": "94", "name": "Pickup"}, {"departmentId": "0C", "name": "Scan, Bag, Go"}, {"departmentId": "21", "name": "Self Checkout"}, {"departmentId": "40", "name": "Coffee Bar"}, {"departmentId": "48", "name": "Starbucks"}, {"departmentId": "89", "name": "Western Union"}, {"departmentId": "03", "name": "Cheese Counter"}, {"departmentId": "08", "name": "Floral"}, {"departmentId": "16", "name": "Drive-thru Pharmacy"}, {"departmentId": "12", "name": "Cosmetics"}, {"departmentId": "23", "name": "Drug & General Merchandise"}, {"departmentId": "36", "name": "Home Fashion And Decor"}, {"departmentId": "65", "name": "Money Services"}, {"departmentId": "49", "name": "Kitchen Place"}, {"departmentId": "63", "name": "I-wireless"}, {"departmentId": "0G", "name": "Meal Kits"}, {"departmentId": "17", "name": "Bath"}, {"departmentId": "18", "name": "Books And Magazines"}, {"departmentId": "30", "name": "Salad Bar"}, {"departmentId": "35", "name": "Home Goods"}, {"departmentId": "02", "name": "Bakery"}, {"departmentId": "42", "name": "Walk Up Pharmacy"}, {"departmentId": "60", "name": "Red Box"}]}, {"locationId": "03483173", "chain": "SHELL COMPANY", "address": {"addressLine1": "11398 HARWIN DR", "city": "HOUSTON", "state": "TX", "zipCode": "77072"}, "geolocation": {"latitude": 29.715949, "longitude": -95.571038, "latLng": "29.715949,-95.5710380"}, "name": "Shell Company", "departments": [{"departmentId": "10", "name": "Gas Station"}]}, {"locationId": "03483441", "chain": "SHELL COMPANY", "address": {"addressLine1": "10805 GRAND PARKWAY", "city": "RICHMOND", "state": "TX", "zipCode": "77407"}, "geolocation": {"latitude": 29.560881, "longitude": -95.690849, "latLng": "29.560881,-95.6908490"}, "name": "Shell Company", "departments": [{"departmentId": "10", "name": "Gas Station"}]}, {"locationId": "03482950", "chain": "SHELL COMPANY", "address": {"addressLine1": "1484 HIGHWAY 6", "city": "SUGAR LAND", "state": "TX", "zipCode": "77478"}, "geolocation": {"latitude": 29.601302, "longitude": -95.631738, "latLng": "29.601302,-95.6317380"}, "name": "Shell Company", "departments": [{"departmentId": "10", "name": "Gas Station"}]}, {"locationId": "03482875", "chain": "SHELL COMPANY", "address": {"addressLine1": "13435 UNIVERSITY BLVD", "city": "SUGAR LAND", "state": "TX", "zipCode": "77479"}, "geolocation": {"latitude": 29.585931, "longitude": -95.647725, "latLng": "29.585931,-95.6477250"}, "name": "Shell Company", "departments": [{"departmentId": "10", "name": "Gas Station"}]}, {"locationId": "03482613", "chain": "SHELL COMPANY", "address": {"addressLine1": "26205 SOUTHWEST FWY", "city": "ROSENBERG", "state": "TX", "zipCode": "77471"}, "geolocation": {"latitude": 29.533087, "longitude": -95.778004, "latLng": "29.533087,-95.7780040"}, "name": "Shell Company", "departments": [{"departmentId": "10", "name": "Gas Station"}]}, {"locationId": "03400396", "chain": "KROGER", "address": {"addressLine1": "6350 N Eldridge Pkwy", "city": "Houston", "state": "TX", "zipCode": "77041", "county": "HARRIS COUNTY"}, "geolocation": {"latitude": 29.8653988, "longitude": -95.6067981, "latLng": "29.8653988,-95.6067981"}, "name": "Kroger - Eldridge Lakes Town Center", "hours": {"timezone": "America/Chicago", "gmtOffset": "(UTC-06:00) Central Time (US Canada)", "open24": false, "monday": {"open": "06:00", "close": "23:00", "open24": false}, "tuesday": {"open": "06:00", "close": "23:00", "open24": false}, "wednesday": {"open": "06:00", "close": "23:00", "open24": false}, "thursday": {"open": "06:00", "close": "23:00", "open24": false}, "friday": {"open": "06:00", "close": "23:00", "open24": false}, "saturday": {"open": "06:00", "close": "23:00", "open24": false}, "sunday": {"open": "06:00", "close": "23:00", "open24": false}}, "phone": "7138966101", "departments": [{"departmentId": "51", "name": "Tortillaria"}, {"departmentId": "65", "name": "Money Services"}, {"departmentId": "12", "name": "Cosmetics"}, {"departmentId": "45", "name": "Wine"}, {"departmentId": "46", "name": "Sushi"}, {"departmentId": "50", "name": "Olive Bar"}, {"departmentId": "03", "name": "Cheese Counter"}, {"departmentId": "64", "name": "Baby World"}, {"departmentId": "94", "name": "Pickup"}, {"departmentId": "08", "name": "Floral"}, {"departmentId": "31", "name": "Coin Star"}, {"departmentId": "53", "name": "Boar's Head"}, {"departmentId": "60", "name": "Red Box"}, {"departmentId": "69", "name": "Online Deli/Bakery Ordering"}, {"departmentId": "21", "name": "Self Checkout"}, {"departmentId": "99", "name": "Check Cashing"}, {"departmentId": "01", "name": "Deli"}, {"departmentId": "04", "name": "Meat Department"}, {"departmentId": "16", "name": "Drive-thru Pharmacy"}, {"departmentId": "17", "name": "Bath"}, {"departmentId": "02", "name": "Bakery"}, {"departmentId": "05", "name": "Seafood Department"}, {"departmentId": "19", "name": "Videos"}, {"departmentId": "23", "name": "Drug & General Merchandise"}, {"departmentId": "09", "name": "Pharmacy", "phone": "7138968487", "hours": {"open24": false, "monday": {"open": "09:00", "close": "20:00", "open24": false}, "tuesday": {"open": "09:00", "close": "20:00", "open24": false}, "wednesday": {"open": "09:00", "close": "20:00", "open24": false}, "thursday": {"open": "09:00", "close": "20:00", "open24": false}, "friday": {"open": "09:00", "close": "20:00", "open24": false}, "saturday": {"open": "09:00", "close": "18:00", "open24": false}, "sunday": {"open": "11:00", "close": "18:00", "open24": false}}}, {"departmentId": "29", "name": "Event Tickets"}, {"departmentId": "32", "name": "Natural And Organics"}, {"departmentId": "10", "name": "Gas Station", "phone": "7138960041", "hours": {"open24": false, "monday": {"open": "06:00", "close": "22:00", "open24": false}, "tuesday": {"open": "06:00", "close": "22:00", "open24": false}, "wednesday": {"open": "06:00", "close": "22:00", "open24": false}, "thursday": {"open": "06:00", "close": "22:00", "open24": false}, "friday": {"open": "06:00", "close": "22:00", "open24": false}, "saturday": {"open": "06:00", "close": "22:00", "open24": false}, "sunday": {"open": "06:00", "close": "22:00", "open24": false}}, "address": {"addressLine1": "6350 N Eldridge Pkwy", "city": "Houston", "state": "TX", "zipCode": "77041"}, "geolocation": {"latitude": 29.8653988, "longitude": -95.6067981, "latLng": "29.8653988,-95.6067981"}, "offsite": true}, {"departmentId": "44", "name": "Beer"}, {"departmentId": "63", "name": "I-wireless"}, {"departmentId": "89", "name": "Western Union"}]}], "meta": {"pagination": {"start": 1, "limit": 101, "total": 101}}}